ID,VIOLATION LAST MODIFIED DATE,VIOLATION DATE,VIOLATION STATUS,VIOLATION STATUS DATE,VIOLATION DESCRIPTION,VIOLATION LOCATION,VIOLATION INSPECTOR COMMENTS,INSPECTOR ID,INSPECTION NUMBER,INSPECTION STATUS,INSPECTION WAIVED,INSPECTION CATEGORY,ADDRESS,STREET NUMBER,STREET DIRECTION,STREET NAME,STREET TYPE,PROPERTY GROUP,SSA,LATITUDE,LONGITUDE,LOCATION
5409195,10/25/2024,05/16/2016,COMPLIED,10/25/2024,ARRANGE FOR REINSPECTION REGAR,OTHER   :    :BUILDING,"UNABLE TO INSPECT INTERIOR, STAIRWELLS, COMMON AREAS, ALL STOREFRONTS, BASEMENT, REAR PREMISES, BALCONIES, AND ROOF DECKS.  UNVERIFIED DETECTORS AND CONDITIONS.",451988,11934688,FAILED,N,PERIODIC,1783 W HOWARD ST,1783,W,HOWARD,ST,14006,19.0,42.01928994,-87.67580162,"(42.019289941587736, -87.67580161669515)"
7156079,11/25/2024,04/24/2024,COMPLIED,11/04/2024,ARRANGE FOR REINSPECTION REGAR,INTERIOR:001 :BL00876,"INTERIOR OF BUILDING , NO ENTRY NO RESPONSE . UNABLE TO VERIFY SMOKE OR CARBON MONOXIDE ALARMS.",BL00904,14327175,FAILED,N,COMPLAINT,1844 N SAWYER AVE,1844,N,SAWYER,AVE,77017,,41.91506362,-87.7087427,"(41.915063620554506, -87.70874270349249)"
5958822,07/11/2024,03/23/2018,COMPLIED,07/11/2024,ARRANGE FOR REINSPECTION REGAR,OTHER   :    :OTHER,"INTERIOR OF BUILDING /NO RESPONSE. UNABLE TO VERIFY 4803N/3RD FLOOR HEAT COMPLAINT, DETECTORS AND CONDITIONS.",478976,12579508,FAILED,N,PERIODIC,4801 N FAIRFIELD AVE,4801,N,FAIRFIELD,AVE,11747,21.0,41.968599,-87.69732171,"(41.9685990035428, -87.69732171286527)"
7033281,08/30/2023,08/30/2023,OPEN,,ARRANGE FOR REINSPECTION REGAR,INTERIOR:002 :,"INTERIOR OF BUILDING, NO ENTRY  NO RESPONSE. UNABLE TO VERIFY APARTMENTS, INTERIOR STAIR SYSTEMS, SMOKE OR CARBON MONOXIDE ALARMS.",464422,13815348,FAILED,N,PERIODIC,921 N LA SALLE DR,921,N,LA SALLE,DR,3950,,41.89966139,-87.63265774,"(41.89966138730225, -87.63265773626321)"
7018187,09/11/2024,08/04/2023,OPEN,,ARRANGE FOR REINSPECTION REGAR,"OTHER   :    :BUILDING,","UNABLE TO INSPECT ALL INTERIORS, STAIRWELLS, APARTMENTS, AND BASEMENT (STEEL REAR PORCHES).  UNVERIFIED DETECTORS AND CONDITIONS.",478934,14127834,FAILED,N,PERIODIC,309 E 69TH ST,309,E,69TH,ST,19818,,41.76917933,-87.61810631,"(41.7691793288155, -87.61810631046862)"
5336340,12/14/2023,02/29/2016,COMPLIED,12/14/2023,ARRANGE FOR REINSPECTION REGAR,OTHER   :    :BUILDING,"UNABLE TO INSPECT INTERIOR, STAIRWELLS, APARTMENTS, BASEMENT,",451988,11840896,FAILED,N,PERIODIC,1040 W HOLLYWOOD AVE,1040,W,HOLLYWOOD,AVE,12391,,41.98561276,-87.65690335,"(41.985612754824416, -87.65690335442834)"
6252008,05/10/2024,05/01/2019,OPEN,,ARRANGE FOR REINSPECTION REGAR,"OTHER   :    :OTHER,","INTERIOR OF THE BUILDING - NO RESPONSE, UNVERIFIED DETECTORS AND CONDITIONS.",455370,12934405,FAILED,N,PERIODIC,2238 S MICHIGAN AVE,2238,S,MICHIGAN,AVE,16686,,41.85174275,-87.62392133,"(41.85174274583339, -87.62392132568888)"
6874863,08/21/2023,11/07/2022,COMPLIED,08/17/2023,ARRANGE FOR REINSPECTION REGAR,INTERIOR:001 :GAINED ENTRY TO 1ST AND 2ND FLOORS; NO RESPONSE FROM GARDEN UNIT.,"INTEROR OF BUILDING , NO RESPONSE . UNABLE TO VERIFY SMOKE OR CARBON MONOXIDE ALARMS.",451988,13887887,PASSED,N,COMPLAINT,3009 W LYNDALE ST,3009,W,LYNDALE,ST,89125,,41.92226975,-87.7026473,"(41.92226975307182, -87.70264729491797)"
6233379,09/26/2024,04/12/2019,OPEN,,ARRANGE FOR REINSPECTION REGAR,OTHER   :    :OTHER,"INTERIOR OF MOST APARTMENTS - NO ENTRY, UNVERIFIED DETECTORS AND CONDITIONS. NO ENTRANCE TO 1515 -1517, UNABLE TO VERIFY CONDITION OF INTERIOR STAIRWAY. UNABLE TO VERIFY COMPLAINT AT 1515 APT 1 FOR WATER LEAKING AT WINDOW THAT IS PUDDLING UP ON SILL AND FLOOR.",371335,12918485,FAILED,N,PERIODIC,1515 W 81ST ST,1515,W,81ST,ST,21171,,41.74663089,-87.66156449,"(41.74663088766076, -87.66156448891377)"
6254959,05/10/2024,05/07/2019,OPEN,,ARRANGE FOR REINSPECTION REGAR,"OTHER   :    :OTHER,","INTERIOR OF THE BUILDING - NO RESPONSE, UNVERIFIED DETECTORS OR CONDITIONS.",455370,12936990,FAILED,N,PERIODIC,2246 S MICHIGAN AVE,2246,S,MICHIGAN,AVE,16712,,41.85152525,-87.62391549,"(41.851525252320876, -87.62391549331318)"
7190317,07/17/2024,07/17/2024,OPEN,,ARRANGE FOR REINSPECTION REGAR,INTERIOR:002 :,"INTERIOR OF BUILDING , NO ENTRY NO RESPONSE . UNABLE TO VERIFY SMOKE OR CARBON MONOXIDE ALARMS.",BL00904,14404855,FAILED,N,COMPLAINT,2326 W 59TH ST,2326,W,59TH,ST,350080,59.0,41.78663805,-87.68209208,"(41.78663804547352, -87.68209207537558)"
6963186,05/26/2023,05/26/2023,OPEN,,ARRANGE FOR REINSPECTION REGAR,"OTHER   :    :BUILDING,",UNABLE TO INSPECT 2ND FLOOR APARTMENT AND BASEMENT.  UNVERIFIED DETECTORS AND CONDITIONS.,BL01000,12636799,FAILED,N,PERIODIC,741 S WESTERN AVE,741,S,WESTERN,AVE,15147,,41.87185371,-87.68603685,"(41.871853705220325, -87.68603684594997)"
6864515,05/18/2023,10/12/2022,OPEN,,ARRANGE FOR REINSPECTION REGAR,"OTHER   :    :.,",INTERIOR OF BUILDING /MOST UNITS - NO ENTRY. UNVERIFIED DETECTORS AND CONDITIONS.,447020,13879635,FAILED,N,PERIODIC,5230 N SHERIDAN RD,5230,N,SHERIDAN,RD,12073,,41.97733524,-87.65516052,"(41.97733524435733, -87.65516052168428)"
6945234,04/20/2023,04/20/2023,OPEN,,ARRANGE FOR REINSPECTION REGAR,INTERIOR:002 :,"INTERIOR OF BUILDING , COURTYARD REAR EXTERIOR STAIRS, NO RESPONSE . UNABLE TO VERIFY SMOKE OR CARBON MONOXIDE ALARMS.",BL00904,13840529,FAILED,N,PERIODIC,735 N AUSTIN BLVD,735,N,AUSTIN,BLVD,2574,,41.89375538,-87.77495075,"(41.89375537518234, -87.77495075280888)"
6961608,05/27/2023,05/27/2023,OPEN,,ARRANGE FOR REINSPECTION REGAR,INTERIOR:001 :,"INTERIOR OF BUILDING ,NO ENTRY  NO RESPONSE . UNABLE TO VERIFY SMOKE OR CARBON MONOXIDE ALARMS.",BL00904,11694825,FAILED,N,PERIODIC,1431 W LAKE ST,1431,W,LAKE,ST,1236,,41.88528666,-87.66343138,"(41.88528665773097, -87.66343137939039)"
6800058,03/27/2023,05/26/2022,COMPLIED,03/27/2023,ARRANGE FOR REINSPECTION REGAR,INTERIOR:002 :,"INTERIOR OF BUILDING , NO RESPONSE . UNABLE TO VERIFY SMOKE OR CARBON MONOXIDE ALARMS.",BL00876,13826003,CLOSED,N,COMPLAINT,4123 W PALMER ST,4123,W,PALMER,ST,92114,,41.9206719,-87.73017798,"(41.9206718951122, -87.73017797556336)"
6618312,12/05/2024,05/22/2021,COMPLIED,12/05/2024,ARRANGE FOR REINSPECTION REGAR,"OTHER   :    :BUILDING,","UNABLE TO INSPECT ALL INTERIOR, STAIRWELLS, APARTMENTS, AND BASEMENT.  UNVERIFIED DETECTORS AND CONDITIONS.",282126,13559249,PASSED,N,PERIODIC,2624 N MILWAUKEE AVE,2624,N,MILWAUKEE,AVE,7690,,41.92939865,-87.70815597,"(41.929398647596884, -87.70815597118417)"
5762116,07/23/2024,06/28/2017,COMPLIED,07/23/2024,ARRANGE FOR REINSPECTION REGAR,OTHER   :    :,"INTERIOR OF BUILDING ¿ NO RESPONSE. UNABLE TO VERIFY DETECTORS, AND CONDITIONS. UNABLE TO INSPECT INTERIOR STAIRWAY. UNABLE TO INSPECT REAR PORCH.",290542,11552546,FAILED,N,PERIODIC,550 W 43RD ST,550,W,43RD,ST,17944,,41.81638057,-87.64049068,"(41.816380567580886, -87.6404906841445)"
6956636,05/08/2023,05/08/2023,OPEN,,ARRANGE FOR REINSPECTION REGAR,OTHER   :    :OTHER,INTERIOR OF BUILDING - NO RESPONSE. UNVERIFIED DETECTORS AND CONDITIONS. UNABLE TO INSPECT INTERIOR STAIRWAY SYSTEMS. UNABLE TO CONFIRM INTERIOR COMPLAINT OF INSECT INFESTATION.,451988,13037957,FAILED,N,PERIODIC,5611 N LINCOLN AVE,5611,N,LINCOLN,AVE,12595,,41.98346923,-87.69544876,"(41.98346922607376, -87.69544875484024)"
5811058,04/06/2024,08/28/2017,COMPLIED,04/06/2024,ARRANGE FOR REINSPECTION REGAR,"OTHER   :    :.,","INTERIOR OF BUILDING Â¿¿ NO RESPONSE. UNABLE TO VERIFY DETECTORS, AND CONDITIONS. UNABLE TO INSPECT INTERIOR STAIRWAY. UNABLE TO INSPECT REAR PORCH.",87296,12316561,FAILED,N,PERIODIC,2412 S MICHIGAN AVE,2412,S,MICHIGAN,AVE,16713,,41.84888198,-87.62385141,"(41.84888197590013, -87.62385140455274)"
7083129,05/13/2024,12/06/2023,COMPLIED,05/13/2024,ARRANGE FOR REINSPECTION REGAR,INTERIOR:002 :,"INTERIOR OF BUILDING , NO ENTRY NO RESPONSE . UNABLE TO VERIFY SMOKE OR CARBON MONOXIDE ALARMS.",BL00904,14172314,PASSED,N,PERIODIC,1646 N KEDZIE AVE,1646,N,KEDZIE,AVE,5933,,41.91150243,-87.70693535,"(41.91150242853591, -87.70693535309562)"
6709514,04/01/2024,11/15/2021,COMPLIED,04/01/2024,ARRANGE FOR REINSPECTION REGAR,INTERIOR:001 :,"INTERIOR OF BUILDING , NO RESPONSE . UNABLE TO VERIFY SMOKE OR CARBON MONOXIDE ALARMS.",BL00904,10553732,FAILED,N,PERIODIC,1425 N MAPLEWOOD AVE,1425,N,MAPLEWOOD,AVE,4996,,41.90740311,-87.69068524,"(41.9074031054638, -87.69068523694365)"
6847132,07/28/2023,09/07/2022,COMPLIED,07/28/2023,ARRANGE FOR REINSPECTION REGAR,OTHER   :    :OTHER,INTERIOR OF BUILDING - NO RESPONSE. UNVERIFIED DETECTORS AND CONDITIONS. UNABLE TO INSPECT INTERIOR STAIRWAY SYSTEMS. UNABLE TO CONFIRM INTERIOR COMPLAINT OF DEFECTIVE SMOKE ALARM.,451988,13865616,FAILED,N,PERIODIC,1941 W WINNEMAC AVE,1941,W,WINNEMAC,AVE,11673,,41.9731725,-87.6778767,"(41.97317249915606, -87.67787669987796)"
7113401,01/26/2024,01/26/2024,OPEN,,ARRANGE FOR REINSPECTION REGAR,"OTHER   :    :1ST FLOOR BARBER SHOP,",REMOVE CEILING TILES FOR ACCESS CEILING FOR INSPECTION. 14A-1-104.7,BL00748,14220603,FAILED,N,COMPLAINT,1537 S PULASKI RD,1537,S,PULASKI,RD,265168,,41.85958562,-87.72482886,"(41.859585624453345, -87.7248288592445)"
6703619,09/30/2024,11/02/2021,COMPLIED,10/01/2024,ARRANGE FOR REINSPECTION REGAR,OTHER   :    :OTHER,INTERIOR OF BUILDING /MOST APARTMENTS - NO RESPONSE. UNVERIFIED DETECTORS AND CONDITIONS.,478976,14262583,FAILED,N,PERIODIC,6833 N KEDZIE AVE,6833,N,KEDZIE,AVE,13880,,42.00561454,-87.70917153,"(42.00561453658591, -87.70917152643794)"
6955763,05/12/2023,05/12/2023,OPEN,,ARRANGE FOR REINSPECTION REGAR,OTHER   :    :OTHER,INTERIOR OF BUILDING /MOST APTS. - NO RESPONSE.  UNVERIFIED DETECTORS AND CONDITIONS. UNVERIFIED COMPLAINT OF RODENT INFESTATION.,282126,11832562,FAILED,N,PERIODIC,1914 W MORSE AVE,1914,W,MORSE,AVE,13787,,42.00780063,-87.67870242,"(42.00780062451796, -87.67870241952052)"
7258001,12/05/2024,12/05/2024,OPEN,,ARRANGE FOR REINSPECTION REGAR,OTHER   :    :OTHER,"ARRANGE FOR REINSPECTION / UNABLE TO VERIFY INTERIOR CONDITIONS, DETECTORS AND OR PREVIOUS 2023 VIOLATIONS. INSPECTION REQUIRED TO COMPLY VIOLATIONS.",447020,14131867,FAILED,N,PERIODIC,7131 N RIDGE BLVD,7131,N,RIDGE,BLVD,13836,,42.01214708,-87.68287716,"(42.012147076594104, -87.68287715479711)"
7237727,10/22/2024,10/22/2024,OPEN,,ARRANGE FOR REINSPECTION REGAR,OTHER   :    :OTHER,INTERIOR OF BUILDING - NO RESPONSE. UNVERIFIED DETECTORS AND CONDITIONS. UNABLE TO INSPECT INTERIOR STAIRWAY SYSTEMS. UNABLE TO CONFIRM INTERIOR COMPLAINT.,478934,14121285,FAILED,N,PERIODIC,5200 S INGLESIDE AVE,5200,S,INGLESIDE,AVE,18713,,41.80077944,-87.60300094,"(41.800779435127524, -87.60300093820629)"
7099030,01/10/2024,01/10/2024,OPEN,,ARRANGE FOR REINSPECTION REGAR,INTERIOR:001 :,"INTERIOR OF BUILDING , NO ENTRY NO RESPONSE . UNABLE TO VERIFY SMOKE OR CARBON MONOXIDE ALARMS",BL00904,14182138,FAILED,N,COMPLAINT,6225 W GRAND AVE,6225,W,GRAND,AVE,95989,,41.92155092,-87.78161649,"(41.92155091827691, -87.78161649239834)"
7195446,07/24/2024,07/24/2024,OPEN,,ARRANGE FOR REINSPECTION REGAR,OTHER   :    :OTHER,INTERIOR OF BUILDING /APT. 2A - NO RESPONSE. UNVERIFIED DETECTORS AND CONDITIONS. UNVERIFIED COMPLAINT OF BEDBUGS.,282126,10701563,FAILED,N,PERIODIC,6822 N WAYNE AVE,6822,N,WAYNE,AVE,13714,24.0,42.00617903,-87.6651246,"(42.00617902941597, -87.66512459899066)"
7203034,08/13/2024,08/13/2024,OPEN,,ARRANGE FOR REINSPECTION REGAR,INTERIOR:002 :,"INTERIOR OF BUILDING , NO ENTRY NO RESPONSE . UNABLE TO VERIFY SMOKE OR CARBON MONOXIDE ALARMS",BL00904,11950588,FAILED,N,PERIODIC,3743 W ARMITAGE AVE,3743,W,ARMITAGE,AVE,5979,,41.91712368,-87.72097206,"(41.91712368363091, -87.72097206430206)"
6724514,08/28/2024,12/21/2021,OPEN,,ARRANGE FOR REINSPECTION REGAR,"OTHER   :    :GENERAL,","NO ENTRY INTO FRONT INTERIOR STAIRWAYS, APARTMENTS OR BASEMENT TO VERIFY EGRESS, CARBON MONOXIDE DETECTORS, SMOKE DETECTORS, INTERIOR STRUCTURAL, COSMETIC OR ENVIRONMENTAL CONDITIONS",371335,13638133,FAILED,N,PERIODIC,7917 S DREXEL AVE,7917,S,DREXEL,AVE,20967,51.0,41.75077111,-87.60259631,"(41.750771114253475, -87.60259631243223)"
5885710,09/30/2024,12/06/2017,COMPLIED,09/30/2024,ARRANGE FOR REINSPECTION REGAR,OTHER   :    :OTHER,INTERIOR OF BUILDING /NO RESPONSE. UNABLE TO VERIFY DETECTORS AND CONDITIONS. UNABLE TO INSPECT INTERIOR STAIRWAY SYSTEMS. YARD GATE LOCKED. UNABLE TO INSPECT REAR EXTERIOR PORCHES.,451988,12373843,FAILED,N,PERIODIC,6201 N GLENWOOD AVE,6201,N,GLENWOOD,AVE,12833,,41.99454828,-87.66513561,"(41.99454827607839, -87.66513560657104)"
6647468,07/18/2023,07/21/2021,OPEN,,ARRANGE FOR REINSPECTION REGAR,"OTHER   :    :.,",INTERIOR OF BUILDING / MOST APTS. - NO RESPONSE. UNVERIFIED DETECTORS AND CONDITIONS. UNVERIFIED COMPLAINT OF APT.205 - BATHROOM CEILING COMING DOWN.,447020,13579585,FAILED,N,PERIODIC,4800 N MARINE DR,4800,N,MARINE,DR,11510,34.0,41.9691991,-87.64979282,"(41.969199095569586, -87.64979281980263)"
7174499,06/05/2024,06/05/2024,OPEN,,ARRANGE FOR REINSPECTION REGAR,OTHER   :    :OTHER,INTERIOR OF BUILDING - NO RESPONSE. UNVERIFIED DETECTORS AND CONDITIONS. UNABLE TO INSPECT INTERIOR STAIRWAY SYSTEMS. UNABLE TO CONFIRM INTERIOR COMPLAINT OF ROACH INFESTATION.,451988,11619121,FAILED,N,PERIODIC,4824 N AVERS AVE,4824,N,AVERS,AVE,11923,,41.96904791,-87.72457242,"(41.96904790675652, -87.72457241693554)"
7217522,09/09/2024,09/09/2024,OPEN,,ARRANGE FOR REINSPECTION REGAR,OTHER   :    :OTHER,INTERIOR OF BUILDING - NO RESPONSE. UNVERIFIED DETECTORS AND CONDITIONS. UNABLE TO INSPECT INTERIOR STAIRWAY SYSTEMS. UNABLE TO CONFIRM INTERIOR COMPLAINT OF UNPERMITTED INTERIOR RENNOVATIONS.,451988,14264127,FAILED,N,PERIODIC,6166 N SHERIDAN RD,6166,N,SHERIDAN,RD,12759,,41.99421884,-87.65566151,"(41.9942188392819, -87.65566151278423)"
7087005,03/08/2023,03/08/2023,OPEN,,ARRANGE FOR REINSPECTION REGAR,OTHER   :    :OTHER,INTERIOR OF BUILDING - NO RESPONSE. UNVERIFIED DETECTORS AND CONDITIONS. UNABLE TO INSPECT INTERIOR STAIRWAY SYSTEMS. UNABLE TO CONFIRM INTERIOR COMPLAINT OF RODENT INFESTATION.,451988,11678593,FAILED,N,PERIODIC,2631 W GREENLEAF AVE,2631,W,GREENLEAF,AVE,13860,,42.0093274,-87.69620213,"(42.00932740254806, -87.6962021342869)"
7250415,11/14/2024,11/14/2024,OPEN,,ARRANGE FOR REINSPECTION REGAR,"OTHER   :    :.,",INTERIOR OF BUILDING - NO RESPONSE. UNVERIFIED DETECTORS AND CONDITIONS. UNABLE TO INSPECT INTERIOR STAIRWAY SYSTEMS. UNABLE TO CONFIRM INTERIOR COMPLAINT OF BED BUG INFESTATION.,451988,12932860,FAILED,N,PERIODIC,4949 N WHIPPLE ST,4949,N,WHIPPLE,ST,11821,60.0,41.97175028,-87.70475888,"(41.97175028030329, -87.70475887847276)"
7224277,09/24/2024,09/24/2024,OPEN,,ARRANGE FOR REINSPECTION REGAR,INTERIOR:001 :,"INTERIOR OF BUILDING , NO ENTRY NO RESPONSE . UNABLE TO VERIFY SMOKE OR CARBON MONOXIDE ALARMS.",BL00904,12958392,FAILED,N,PERIODIC,1750 N SPAULDING AVE,1750,N,SPAULDING,AVE,22276,,41.91332565,-87.71031714,"(41.913325646641766, -87.71031713835545)"
7058341,10/13/2023,10/13/2023,OPEN,,ARRANGE FOR REINSPECTION REGAR,INTERIOR:001 :,"INTERIOR OF BUILDING , NO ENTRY NO RESPONSE . UNABLE TO VERIFY SMOKE OR CARBON MONOXIDE ALARMS.",BL00904,14153320,FAILED,N,COMPLAINT,6206 W 55TH ST,6206,W,55TH,ST,563028,,41.79254843,-87.77727619,"(41.79254842563919, -87.77727619076556)"
7136935,03/21/2024,03/21/2024,OPEN,,ARRANGE FOR REINSPECTION REGAR,OTHER   :    :OTHER,"INTERIOR OF BUILDING - NO RESPONSE, UNABLE TO VERFY DETECTORS AND INTERIOR CONDITIONS.",BL00831,14314420,FAILED,N,COMPLAINT,6727 S ARTESIAN AVE,6727,S,ARTESIAN,AVE,400507,14.0,41.77113486,-87.68449508,"(41.771134860574165, -87.68449507700544)"
7155605,04/20/2024,04/20/2024,OPEN,,ARRANGE FOR REINSPECTION REGAR,OTHER   :    :OTHER,INTERIOR OF BUILDING /NO ENTRY.,282126,13248380,FAILED,N,PERIODIC,2334 S MICHIGAN AVE,2334,S,MICHIGAN,AVE,16688,,41.8500572,-87.62388124,"(41.850057197430516, -87.62388124206016)"
7203839,08/14/2024,08/14/2024,OPEN,,ARRANGE FOR REINSPECTION REGAR,OTHER   :    :OTHER,INTERIOR OF BUILDING - NO RESPONSE. UNVERIFIED DETECTORS AND CONDITIONS. UNABLE TO INSPECT INTERIOR STAIRWAY SYSTEMS. UNABLE TO CONFIRM INTERIOR COMPLAINT OF RODENT INFESTATION.,451988,10995950,FAILED,N,PERIODIC,1235 W NORTH SHORE AVE,1235,W,NORTH SHORE,AVE,13359,54.0,42.00341266,-87.66223051,"(42.00341266080351, -87.66223051363434)"
6793140,07/31/2024,05/14/2022,OPEN,,ARRANGE FOR REINSPECTION REGAR,OTHER   :    :OTHER,"INTERIOR OF BUILDING - NO RESPONSE TO DWELLING UNITS DOOR INTERCOM SYSTEM AT FRONT GATE NOT WORKING, 1ST FLOOR COMMERCIAL UNITS CLOSED AT TIME OF INSPECTION - UNVERIFIED DETECTORS AND CONDITIONS.",478934,13820587,FAILED,N,PERIODIC,801 W CORNELIA AVE,801,W,CORNELIA,AVE,9016,18.0,41.94535865,-87.64951001,"(41.94535864797623, -87.6495100120242)"
7225003,09/24/2024,09/24/2024,OPEN,,ARRANGE FOR REINSPECTION REGAR,"OTHER   :    :BUILDING,","UNABLE TO INSPECT ALL INTERIORS, STAIRWELLS, APARTMENTS, BASEMENT, STOREFRONTS, REAR PREMISES,  REAR PORCHES, AND PREVIOUS VIOLATIONS FROM INSPECTION #13552951.  UNVERIFIED DETECTORS AND CONDITIONS.",BL01000,13944107,FAILED,N,PERIODIC,8248 S EBERHART AVE,8248,S,EBERHART,AVE,20903,,41.74422322,-87.61245543,"(41.74422321722993, -87.61245543308661)"
7214446,09/04/2024,09/04/2024,OPEN,,ARRANGE FOR REINSPECTION REGAR,OTHER   :    :OTHER,INTERIOR OF BUILDING - NO RESPONSE. UNVERIFIED DETECTORS AND CONDITIONS. UNABLE TO INSPECT INTERIOR STAIRWAY SYSTEMS. UNABLE TO CONFIRM INTERIOR COMPLAINT RODENT INFESTATION.,478934,10936621,FAILED,N,PERIODIC,7909 S NORMAL AVE,7909,S,NORMAL,AVE,21124,32.0,41.75044718,-87.63657164,"(41.75044717513922, -87.63657164241012)"
6940030,09/26/2023,04/11/2023,COMPLIED,09/14/2023,ARRANGE FOR REINSPECTION REGAR,INTERIOR:001 :BL00876,"INTERIOR OF BUILDING , NO RESPONSE . UNABLE TO VERIFY SMOKE OR CARBON MONOXIDE ALARMS.",BL00904,14082378,FAILED,N,COMPLAINT,4947 W WALTON ST,4947,W,WALTON,ST,54854,,41.8975995,-87.75018941,"(41.89759949670703, -87.7501894092043)"
6959038,05/22/2023,05/22/2023,OPEN,,ARRANGE FOR REINSPECTION REGAR,INTERIOR:002 :,"INTERIOR OF BUILDING ,NO ENTRY  NO RESPONSE . UNABLE TO VERIFY SMOKE OR CARBON MONOXIDE ALARMS",BL00904,13896561,FAILED,N,PERIODIC,3859 W MAYPOLE AVE,3859,W,MAYPOLE,AVE,1469,,41.88395166,-87.72294418,"(41.883951658839855, -87.72294418275395)"
7017629,08/03/2023,08/03/2023,OPEN,,ARRANGE FOR REINSPECTION REGAR,"OTHER   :    :BUILDING,","NO RESPONSE; NO ENTRY.  UNABLE TO INSPECT  INTERIOR, STAIRWELLS, APARTMENTS, BASEMENT, REAR PREMISES, AND REAR PORCHES.  UNVERIFIED DETECTORS AND CONDITIONS.",BL01000,12970535,FAILED,N,PERIODIC,6900 S CLYDE AVE,6900,S,CLYDE,AVE,19976,,41.76973527,-87.57409729,"(41.76973527030794, -87.57409729013571)"
6314267,12/27/2023,07/31/2019,COMPLIED,10/26/2022,ARRANGE FOR REINSPECTION REGAR,OTHER   :    :OTHER,NO ENTRY TO 6526 1ST TO 3RD FLR. AND 6528 1ST AND 2ND FLR.APARTMENTS.,BL00444,12981421,FAILED,N,COMPLAINT,6528 S GREENWOOD AVE,6528,S,GREENWOOD,AVE,377248,,41.77595972,-87.59989181,"(41.77595971760947, -87.59989181077468)"
6955832,05/12/2023,05/12/2023,OPEN,,ARRANGE FOR REINSPECTION REGAR,OTHER   :    :OTHER,"INTERIOR OF BUILDING-NO RESPONSE,UNVERIFIED DETECTORS AND CONDITIONS FOR 2023 ANNUAL INSPECTION.",BL00708,11705688,FAILED,N,PERIODIC,2714 W AINSLIE ST,2714,W,AINSLIE,ST,11742,,41.97084553,-87.69692661,"(41.970845528601195, -87.6969266112275)"
6926359,04/24/2023,03/08/2023,COMPLIED,04/24/2023,ARRANGE FOR REINSPECTION REGAR,REAR PORCH,"NO SHOW FOR INSPECTION, BUT PLANS AND PERMIT LEFT AT SITE.  WILL UPDATE IN SYSTEM WHEN ORIGINAL PERMIT IS SIGNED.",371335,14012255,PASSED,N,PERMIT,4634 S WALLACE ST,4634,S,WALLACE,ST,310449,,41.80975278,-87.6408425,"(41.80975277509432, -87.6408424972876)"
7168095,05/23/2024,05/23/2024,OPEN,,ARRANGE FOR REINSPECTION REGAR,OTHER   :    :OTHER,INTERIOR OF BUILDING /NO RESPONSE. UNVERIFIED DETECTORS AND CONDITIONS.5906 /APT.B7 - UNVERIFIED COMPLAINT OF BEDBUGS.,282126,11575753,FAILED,N,PERIODIC,5900 N KENMORE AVE,5900,N,KENMORE,AVE,12420,,41.98919381,-87.65693459,"(41.98919380561558, -87.65693459128155)"
6839193,10/29/2024,08/23/2022,OPEN,,ARRANGE FOR REINSPECTION REGAR,INTERIOR:001 :,"INTERIOR OF BUILDING , NO RESPONSE . UNABLE TO VERIFY SMOKE OR CARBON MONOXIDE ALARMS.",BL00904,13858658,FAILED,N,PERIODIC,5911 W FULTON ST,5911,W,FULTON,ST,1656,,41.88549965,-87.77247162,"(41.885499645407414, -87.77247162330394)"
6845146,09/14/2023,08/29/2022,OPEN,,ARRANGE FOR REINSPECTION REGAR,OTHER   :    :OTHER,INTERIOR OF BUILIDING /MOST APARTMENTS AND COMMERCIAL SPACES NO RESPONSE - UNVERIFIED DETECTORS AND CONDITIONS. UNVERIFIED COMPLAINT OF HOLES IN BATHROOM IN APT 204.,371335,13863593,FAILED,N,PERIODIC,7902 S PAULINA ST,7902,S,PAULINA,ST,21204,,41.75017535,-87.66600692,"(41.75017534473109, -87.66600691783)"
7056878,10/11/2023,10/11/2023,OPEN,,ARRANGE FOR REINSPECTION REGAR,OTHER   :    :OTHER,"INTERIOR OF BUILDING-NO RESPONSE,UNVERIFIED DETECTORS AND CONDITIONS. UNVERIFIED INTERIOR INSPECTION FOR 2023 ANNUALINSPECIOM.",BL00708,13898953,FAILED,N,PERIODIC,4045 N KEDVALE AVE,4045,N,KEDVALE,AVE,10613,,41.95507501,-87.73073598,"(41.955075007069766, -87.73073597988811)"
7184685,07/02/2024,07/02/2024,OPEN,,ARRANGE FOR REINSPECTION REGAR,"OTHER   :    :.,",INTERIOR OF BUILDING - NO RESPONSE. UNVERIFIED DETECTORS AND CONDITIONS. UNABLE TO INSPECT INTERIOR STAIRWAY SYSTEMS. UNABLE TO CONFIRM INTERIOR COMPLAINT OF RODENT INFESTATION.,478934,12683210,FAILED,N,PERIODIC,1448 N MAPLEWOOD AVE,1448,N,MAPLEWOOD,AVE,5000,,41.90807846,-87.69099704,"(41.90807845941174, -87.69099703758718)"
7252754,11/25/2024,11/08/2024,OPEN,,ARRANGE FOR REINSPECTION REGAR,,REFUSE ENTRY FOR REINSPECTION 14A-1-104.7,207401,14458946,FAILED,N,COMPLAINT,11517 S PERRY AVE,11517,S,PERRY,AVE,530108,,41.68473013,-87.62517671,"(41.68473013032009, -87.62517671260544)"
6955976,05/13/2023,05/13/2023,OPEN,,ARRANGE FOR REINSPECTION REGAR,INTERIOR:002 :,"INTERIOR OF BUILDING ,NO ENTRY  NO RESPONSE . UNABLE TO VERIFY SMOKE OR CARBON MONOXIDE ALARMS.UNABLE TO VERIFY PREVIOUS MICE COMPLAINTS ALSO.",BL00904,14095117,FAILED,N,COMPLAINT,1966 S TRUMBULL AVE,1966,S,TRUMBULL,AVE,25581,,41.85371165,-87.71135521,"(41.85371164970872, -87.71135521338833)"
7052811,02/23/2024,10/02/2023,COMPLIED,02/23/2024,ARRANGE FOR REINSPECTION REGAR,OTHER   :    :OTHER,INTERIOR OF BUILDING - NO RESPONSE. UNVERIFIED DETECTORS AND CONDITIONS. UNABLE TO INSPECT INTERIOR STAIRWAY SYSTEMS. UNABLE TO CONFIRM INTERIOR COMPLAINT OF ROACH INFESTATION.,451988,14017601,FAILED,N,PERIODIC,1810 W FARWELL AVE,1810,W,FARWELL,AVE,13762,,42.00662542,-87.676216,"(42.006625418798194, -87.6762160039813)"
5939881,11/06/2023,02/27/2018,COMPLIED,11/06/2023,ARRANGE FOR REINSPECTION REGAR,OTHER   :    :OTHER,INTERIOR OF BUILDING /NO RESPONSE. UNABLE TO VERIFY DETECTORS AND CONDITIONS. UNABLE TO INSPECT INTERIOR STAIR SYSTEMS.,451988,12565554,FAILED,N,PERIODIC,5362 W LAWRENCE AVE,5362,W,LAWRENCE,AVE,12009,,41.96774211,-87.76200848,"(41.96774210998859, -87.76200848310816)"
7070758,11/05/2024,11/03/2023,COMPLIED,11/05/2024,ARRANGE FOR REINSPECTION REGAR,OTHER   :    :OTHER,"INTERIOR OF 1ST FLOOR APT. AND FRONT OF BASEMENT - NO RESPONSE, UNVERIFIED DETECTORS, CONDITIONS AND OCCUPANCY.",87296,14443091,PASSED,N,COMPLAINT,11820 S STATE ST,11820,S,STATE,ST,530269,,41.67921329,-87.6228446,"(41.6792132888606, -87.62284460233455)"
7083160,12/06/2023,12/06/2023,OPEN,,ARRANGE FOR REINSPECTION REGAR,INTERIOR:002 :,ARRAGE FOR REINSPECTION - UNABLE TO VERIFY COMPLAINT. NO ACCESS TO INTERIOR OF BUILDING DURING INSPECTION.,464422,12318618,FAILED,N,PERIODIC,2257 N LINCOLN AVE,2257,N,LINCOLN,AVE,6293,35.0,41.92323642,-87.64546116,"(41.923236421741215, -87.64546116059478)"
7217451,09/09/2024,09/09/2024,OPEN,,ARRANGE FOR REINSPECTION REGAR,OTHER   :    :OTHER,INTERIOR OF BUILDING - NO RESPONSE. UNVERIFIED DETECTORS AND CONDITIONS. UNABLE TO INSPECT INTERIOR STAIRWAY SYSTEMS. UNABLE TO CONFIRM INTERIOR COMPLAINT OF RODENT INFESTATION AND CONSTRUCTION BEING DONE WITHOUT PERMIT ON FILE.,451988,13553516,FAILED,N,PERIODIC,7381 N DAMEN AVE,7381,N,DAMEN,AVE,13996,,42.01632702,-87.68032542,"(42.0163270164064, -87.6803254160563)"
5336195,07/17/2024,03/02/2016,COMPLIED,07/17/2024,ARRANGE FOR REINSPECTION REGAR,INTERIOR:001 :,"INTERIOR OF BUILDING - NO RESPONSE, UNVERIFIED DETECTORS OCCUPANCY AND CONDITIONS.UNABLE TO INSPECT PORCH(S) FROM ALLEY SCREEN, - SECURITY GATE.UNABLE TO GAIN ENTRY, FRONT AND REAR IRON GATE, UNABLE TO PERFORM 2016 ANNUAL INSPECTION.",478934,11840835,FAILED,N,PERIODIC,536 W ARLINGTON PL,536,W,ARLINGTON,PL,7180,23.0,41.92685646,-87.64270527,"(41.92685646039529, -87.64270526538459)"
7173945,05/31/2024,05/31/2024,OPEN,,ARRANGE FOR REINSPECTION REGAR,"OTHER   :    :1ST FLOOR CEILING ACCESS,",1ST FLOOR REMOVE CEILING TILES FOR FULL CEILING INSPECTION.  14A-1-104.7,BL00748,14385487,FAILED,N,COMPLAINT,5050 W MADISON ST,5050,W,MADISON,ST,33318,,41.8805193,-87.75219543,"(41.88051930215209, -87.75219542624971)"
7086520,12/12/2023,12/12/2023,OPEN,,ARRANGE FOR REINSPECTION REGAR,OTHER   :    :OTHER,FRONT BUILDING - NO ENTRY TO VERFY DETECTORS AND BASEMENT OCCUPANCY.,BL00831,14174735,FAILED,N,COMPLAINT,713 W 48TH ST,713,W,48TH,ST,320219,,41.8069649,-87.64364856,"(41.806964904119695, -87.64364855929958)"
7055421,10/07/2023,10/07/2023,OPEN,,ARRANGE FOR REINSPECTION REGAR,INTERIOR:001 :,"INTERIOR OF BUILDING , NO ENTRY NO RESPONSE . UNABLE TO VERIFY SMOKE OR CARBON MONOXIDE ALARMS.",BL00904,11925156,FAILED,N,PERIODIC,3420 W DICKENS AVE,3420,W,DICKENS,AVE,6856,,41.91926459,-87.71283184,"(41.919264591944774, -87.71283183534646)"
4538730,03/11/2024,08/21/2013,COMPLIED,03/09/2024,ARRANGE FOR REINSPECTION REGAR,OTHER   :    :,NO ENTRY TO INTERIOR.,BL00340,10995915,PASSED,N,COMPLAINT,2102 N DAMEN AVE,2102,N,DAMEN,AVE,86861,33.0,41.9196652,-87.67783716,"(41.919665198828135, -87.67783715725307)"
6977361,06/15/2023,06/15/2023,OPEN,,ARRANGE FOR REINSPECTION REGAR,INTERIOR:001 :,"INTERIOR OF BUILDING ,NO ENTRY  NO RESPONSE . UNABLE TO VERIFY SMOKE OR CARBON MONOXIDE ALARMS.",BL00904,12313804,FAILED,N,PERIODIC,1424 E HYDE PARK BLVD,1424,E,HYDE PARK,BLVD,18473,,41.80254496,-87.59074908,"(41.802544958745216, -87.59074908274467)"
5754985,10/08/2024,06/21/2017,COMPLIED,10/08/2024,ARRANGE FOR REINSPECTION REGAR,OTHER   :    :OTHER,NO ENTRY INTERIOR.  UANBLE TO VERIFY DETECTORS AND INTERIOR CONDITIONS.,451988,12277749,FAILED,N,PERIODIC,4100 W IRVING PARK RD,4100,W,IRVING PARK,RD,10589,,41.95374332,-87.72925407,"(41.95374332129826, -87.7292540671475)"
5869540,05/19/2023,11/09/2017,OPEN,,ARRANGE FOR REINSPECTION REGAR,OTHER   :    :OTHER,"DENIED ENTRY AT TIME OF INSPECTION.UNABLE TO GAIN ENTRY TO VERIFY OCCUPANCY,DETECTORS AND OVERALL CONDITION FOR 2017 ANNUAL INSPECTION.",BL00708,13845351,FAILED,N,PERIODIC,3927 N SOUTHPORT AVE,3927,N,SOUTHPORT,AVE,9872,,41.9533616,-87.66404373,"(41.95336159522701, -87.6640437283909)"
6611288,07/02/2024,05/05/2021,COMPLIED,07/01/2024,ARRANGE FOR REINSPECTION REGAR,"OTHER   :    :BUILDING,",INTERIOR OF BUILDING - NO REPONSE,BL00903,12634492,FAILED,N,PERIODIC,1446 N WELLS ST,1446,N,WELLS,ST,4357,48.0,41.90892604,-87.63478764,"(41.908926038374304, -87.63478763458998)"
7187836,07/09/2024,07/09/2024,OPEN,,ARRANGE FOR REINSPECTION REGAR,INTERIOR:001 :,"INTERIOR OF BUILDING - NO RESPONSE. UNVERIFIED DETECTORS, CONDITIONS, OCCUPANCY. ARRANGE FOR REINSPECTION.",478976,12579508,FAILED,N,PERIODIC,4801 N FAIRFIELD AVE,4801,N,FAIRFIELD,AVE,11747,21.0,41.968599,-87.69732171,"(41.9685990035428, -87.69732171286527)"
7069511,10/31/2023,10/31/2023,OPEN,,ARRANGE FOR REINSPECTION REGAR,"OTHER   :    :.,",INTERIOR OF BUILDING - NO RESPONSE. UNVERIFIED DETECTORS AND CONDITIONS. UNABLE TO INSPECT INTERIOR STAIRWAY SYSTEMS. UNABLE TO CONFIRM INTERIOR COMPLAINTS OF HOLES IN CEILING WITHIN UNIT 2W.,451988,12565554,FAILED,N,PERIODIC,5362 W LAWRENCE AVE,5362,W,LAWRENCE,AVE,12009,,41.96774211,-87.76200848,"(41.96774210998859, -87.76200848310816)"
7140125,05/30/2024,03/27/2024,COMPLIED,05/30/2024,ARRANGE FOR REINSPECTION REGAR,INTERIOR:001 :,"INTERIOR OF BUILDING , NO ENTRY NO RESPONSE . UNABLE TO VERIFY SMOKE OR CARBON MONOXIDE ALARMS.",BL00904,13573261,FAILED,N,PERIODIC,1430 N MAPLEWOOD AVE,1430,N,MAPLEWOOD,AVE,4999,,41.90756859,-87.69098359,"(41.90756859053265, -87.69098359385144)"
6759529,06/26/2023,03/14/2022,NO ENTRY,,ARRANGE FOR REINSPECTION REGAR,INTERIOR:001 :,"INTERIOR OF BUILDING , NO RESPONSE . UNABLE TO VERIFY SMOKE OR CARBON MONOXIDE ALARMS.",BL00904,13744330,FAILED,N,PERIODIC,3534 W 13TH PL,3534,W,13TH,PL,15755,,41.86420278,-87.71432674,"(41.86420277962606, -87.71432674038708)"
7222877,09/18/2024,09/18/2024,OPEN,,ARRANGE FOR REINSPECTION REGAR,"OTHER   :    :BUILDING,","UNABLE TO INSPECT INTERIOR, STAIRWELLS, APARTMENTS, BASEMENT, AND PREVIOUS VIOLATIONS FROM INSPECTION #12584203.  UNVERIFIED DETECTORS AND CONDITIONS.",BL01000,12980812,FAILED,N,PERIODIC,8236 S MARYLAND AVE,8236,S,MARYLAND,AVE,21024,51.0,41.74469839,-87.60392956,"(41.74469839213757, -87.60392955566243)"
7204470,07/30/2024,07/30/2024,OPEN,,ARRANGE FOR REINSPECTION REGAR,INTERIOR:001 :,NO ENTRY. NO RESPONSE. UNVERIFIED DETECTORS AND CONDITIONS. UNABLE TO INSPECT ALL APARTMENTS AND BASEMENT.,478976,14088435,FAILED,N,PERIODIC,6042 S VERNON AVE,6042,S,VERNON,AVE,19369,,41.78444334,-87.61457926,"(41.784443342694225, -87.61457926146402)"
6612139,05/16/2023,05/15/2021,COMPLIED,05/16/2023,ARRANGE FOR REINSPECTION REGAR,"OTHER   :    :.,",INTERIOR OF BUILDING /ENTRY REFUSED BY FRONT ATTENDENT. UNVERIFIED DETECTORS AND CONDITIONS. ATTENDENT STATED PROPERTY MANAGER NOT THERE ON WEEKENDS. UNVERIFIED COMPLAINT OF UNIT 403 RATS.,447020,13555428,FAILED,N,PERIODIC,5042 N WINTHROP AVE,5042,N,WINTHROP,AVE,11502,34.0,41.97453,-87.65791555,"(41.97453000370947, -87.65791554834995)"
7219861,09/11/2024,09/11/2024,OPEN,,ARRANGE FOR REINSPECTION REGAR,OTHER   :    :OTHER,INTERIOR OF BUILDING - NO RESPONSE. UNVERIFIED DETECTORS AND CONDITIONS. UNABLE TO INSPECT INTERIOR STAIRWAY SYSTEMS. UNABLE TO CONFIRM INTERIOR COMPLAINT OF BASEMENT OCCUPANCY AND MISSING SMOKE DETECTORS.,451988,14439506,FAILED,N,COMPLAINT,4712 W DEMING PL,4712,W,DEMING,PL,105663,,41.92735414,-87.74455651,"(41.92735413604488, -87.74455650918073)"
7213734,09/03/2024,09/03/2024,OPEN,,ARRANGE FOR REINSPECTION REGAR,INTERIOR:002 :,"INTERIOR OF BUILDING , NO ENTRY NO RESPONSE . UNABLE TO VERIFY SMOKE OR CARBON MONOXIDE ALARMS",BL00904,11979844,FAILED,N,PERIODIC,806 N LOCKWOOD AVE,806,N,LOCKWOOD,AVE,3866,,41.89516995,-87.75820452,"(41.895169952415145, -87.75820452324656)"
7169276,05/21/2024,05/21/2024,OPEN,,ARRANGE FOR REINSPECTION REGAR,OTHER   :    :OTHER,INTERIOR OF BUILDING - NO RESPONSE. UNVERIFIED DETECTORS AND CONDITIONS. UNABLE TO INSPECT INTERIOR STAIRWAY SYSTEMS.,451988,13548429,FAILED,N,PERIODIC,3350 W EVERGREEN AVE,3350,W,EVERGREEN,AVE,5087,,41.90562859,-87.71134176,"(41.90562859039969, -87.71134176033203)"
4538726,03/11/2024,08/21/2013,COMPLIED,03/11/2024,ARRANGE FOR REINSPECTION REGAR,BL00340  869,NO ENTRY TO INTERIOR.,BL00444,10995914,FAILED,N,COMPLAINT,2102 N DAMEN AVE,2102,N,DAMEN,AVE,86861,33.0,41.9196652,-87.67783716,"(41.919665198828135, -87.67783715725307)"
7241523,10/29/2024,10/29/2024,OPEN,,ARRANGE FOR REINSPECTION REGAR,OTHER   :    :OTHER,54-60 STAIRWELLS / INTERIOR OF BUILDING - NO RESPONSE. UNVERIFIED DETECTORS AND CONDITIONS. UNABLE TO INSPECT INTERIOR STAIRWAY SYSTEMS.,478934,14157921,FAILED,N,PERIODIC,54 E 70TH ST,54,E,70TH,ST,19822,,41.76748496,-87.62286922,"(41.767484962118246, -87.62286921728874)"
7026961,07/28/2023,07/28/2023,OPEN,,ARRANGE FOR REINSPECTION REGAR,OTHER   :    :OTHER,INTERIOR OF BUILDING /MOST APARTMENTS AND COMMON AREAS - NO ENTRY. UNVERIFIED DETECTORS AND CONDITIONS. UNVERIFIED COMPLAINT OF ROACHES.,455370,12594750,FAILED,N,PERIODIC,4934 S DR MARTIN L KING JR DR,4934,S,DR MARTIN L KING JR,DR,18311,,41.80468903,-87.61661687,"(41.804689027249296, -87.61661687038234)"
6948741,04/26/2023,04/26/2023,OPEN,,ARRANGE FOR REINSPECTION REGAR,OTHER   :    :OTHER,"INTERIOR OF BUILDING-NO RESPONSE,UNVERIFIED DETECTORS AND CONDITIONS. UNVERIFIED INSPECTION OF STAIRWAYS,LAUNDRY ROOM,AND PARKING GARAGE FOR 2023 ANNUAL INSPECTION.",BL00708,13865689,FAILED,N,PERIODIC,6110 N KENMORE AVE,6110,N,KENMORE,AVE,12728,26.0,41.99271449,-87.65704128,"(41.99271448932364, -87.65704127737227)"
6990379,06/24/2023,06/24/2023,OPEN,,ARRANGE FOR REINSPECTION REGAR,INTERIOR:001 :,"INTERIOR OF BUILDING ,NO ENTRY  NO RESPONSE . UNABLE TO VERIFY SMOKE OR CARBON MONOXIDE ALARMS.",BL00904,10629207,FAILED,N,PERIODIC,801 S CALIFORNIA AVE,801,S,CALIFORNIA,AVE,15171,,41.87101878,-87.69587741,"(41.87101878235394, -87.6958774098397)"
6320303,01/06/2023,08/08/2019,COMPLIED,01/06/2023,ARRANGE FOR REINSPECTION REGAR,OTHER   :    :OTHER,"INTERIOR OF APTS. - NO RESPONSE, UNVERIIFED DETECTORS AND CONDITIONS.  UNABLE TO VERIFY CONDITION OF 3 STORY WOOD PORCHES.",371335,12574580,FAILED,N,PERIODIC,7517 S COLES AVE,7517,S,COLES,AVE,20726,49.0,41.75952953,-87.55811392,"(41.75952953113658, -87.55811392301543)"
7009014,07/21/2023,07/21/2023,OPEN,,ARRANGE FOR REINSPECTION REGAR,"OTHER   :    :BUILDING,","UNABLE TO INSPECT INTERIOR, STAIRWELLS, APARTMENTS, BASEMENT, ALL REAR PREMISES, AND REAR PORCHES (NORTH).  UNVERIFIED DETECTORS AND CONDITIONS.",BL01000,12678219,FAILED,N,PERIODIC,7625 S EAST END AVE,7625,S,EAST END,AVE,20571,,41.75620641,-87.58327817,"(41.7562064123443, -87.58327817345842)"
6106112,08/29/2024,11/29/2017,OPEN,,ARRANGE FOR REINSPECTION REGAR,OTHER   :    :OTHER,"INTERIOR OF BUILDING - NO RESPONSE, UNVERIFIED DETECTORS, BUILDING AND STAIR DATA",478934,12685540,FAILED,N,PERIODIC,7527 S COLFAX AVE,7527,S,COLFAX,AVE,20607,49.0,41.75823615,-87.56136034,"(41.758236152701734, -87.56136033687181)"
7178227,06/18/2024,06/18/2024,OPEN,,ARRANGE FOR REINSPECTION REGAR,EXTERIOR:W   :,"INTERIOR FO BUILDING - NO ENTRY, NO REPSONSE. UNABLE TO VERIFY SMOKE AND CARBON MONOXIDE ALARMS AND CONDITIONS.",478976,14388729,FAILED,N,COMPLAINT,5465 N PARKSIDE AVE,5465,N,PARKSIDE,AVE,203813,,41.98048668,-87.7694642,"(41.98048668357294, -87.76946420032333)"
6712032,02/23/2024,06/20/2019,COMPLIED,02/23/2024,ARRANGE FOR REINSPECTION REGAR,"OTHER   :    :BUILDING,","INTERIOR OF MOST APTS. - NO RESPONSE, UNVERIFIED DETECTORS AND CONDITIONS. UNABLE TO VERIFY CONDITION OF BASEMENTS.",BL01000,13627291,FAILED,N,PERIODIC,7725 S LOWE AVE,7725,S,LOWE,AVE,20764,,41.75355674,-87.64030741,"(41.75355674430277, -87.64030741167673)"
6999717,07/06/2023,07/06/2023,OPEN,,ARRANGE FOR REINSPECTION REGAR,OTHER   :    :OTHER,INTERIOR OF BUILDING - NO RESPONSE. UNVERIFIED DETECTORS AND CONDITIONS. UNABLE TO INSPECT INTERIOR STAIRWAY SYSTEMS. UNABLE TO CONFIRM INTERIOR COMPLAINT OF OBSTRUCTIONS AT FRONT ENTRY DOOR.,451988,12692394,FAILED,N,PERIODIC,6509 N OAKLEY AVE,6509,N,OAKLEY,AVE,13468,,41.99988692,-87.68735708,"(41.999886917118104, -87.6873570782689)"
7046468,09/20/2023,09/20/2023,OPEN,,ARRANGE FOR REINSPECTION REGAR,"OTHER   :    :BUILDING,","NO RESPONSE; NO ENTRY. UNABLE TO INSPECT INTERIOR, STAIRWELLS, APARTMENTS, BASEMENT, REAR PREMISES, AND REAR PORCHES.  UNVERIFIED DETECTORS AND CONDITIONS.",BL01000,13851635,FAILED,N,PERIODIC,7700 S PHILLIPS AVE,7700,S,PHILLIPS,AVE,20675,,41.75528274,-87.56523504,"(41.75528274110496, -87.56523503887202)"
7017677,08/03/2023,08/03/2023,OPEN,,ARRANGE FOR REINSPECTION REGAR,"OTHER   :    :BUILDING,","NO RESPONSE; NO ENTRY.  UNABLE TO INSPECT INTERIOR, STAIRWELLS, APARTMENTS, BASEMENT, ALL REAR PREMISES AND REAR PORCHES.  UNVERIFIED DETECTORS AND CONDITONS.",BL01000,13596675,FAILED,N,PERIODIC,8016 S EVANS AVE,8016,S,EVANS,AVE,20914,,41.74888941,-87.60653119,"(41.748889405928104, -87.60653118993027)"
6848439,09/20/2023,09/09/2022,OPEN,,ARRANGE FOR REINSPECTION REGAR,OTHER   :    :OTHER,"INTERIOR OF BUILDING - NO RESPONSE, UNVERIFIED DETECTORS AND CONDITIONS. UNABLE TO VERIFY CONDITIONS OF INTERIOR STAIRWAYS AND BASEMENTS. UNABLE TO VERIFY COMPLAINT AT 6201 APT 3N FOR MICE.",371335,13866414,FAILED,N,PERIODIC,639 E 62ND ST,639,E,62ND,ST,19306,,41.78206312,-87.6093092,"(41.782063117966516, -87.60930919897925)"
7207818,08/21/2024,08/21/2024,OPEN,,ARRANGE FOR REINSPECTION REGAR,INTERIOR:002 :,"INTERIOR OF BUILDING , NO ENTRY NO RESPONSE . UNABLE TO VERIFY SMOKE OR CARBON MONOXIDE ALARMS, COMPLAINTS OF BUILDING ROACH INFESTATION OR BASEMENT FLOODING.",BL00904,14431364,FAILED,N,COMPLAINT,14 N MAYFIELD AVE,14,N,MAYFIELD,AVE,1661,,41.88058285,-87.77195036,"(41.88058285215317, -87.77195035493547)"
5033398,12/03/2024,04/17/2015,COMPLIED,12/03/2024,ARRANGE FOR REINSPECTION REGAR,OTHER   :    :,"NO ENTRY TO INTERIOR, POSSIBLE ALTER STORE FRONT INTO APARTMENT.",BL00444,11577921,FAILED,N,COMPLAINT,10758 S INDIANA AVE,10758,S,INDIANA,AVE,509923,,41.69818383,-87.61854682,"(41.69818383224347, -87.61854682399726)"
7051267,09/26/2023,09/26/2023,OPEN,,ARRANGE FOR REINSPECTION REGAR,OTHER   :    :OTHER,INTERIOR OF BUILDING - NO RESPONSE. UNVERIFIED DETECTORS AND CONDITIONS. UNABLE TO INSPECT INTERIOR STAIRWAY SYSTEMS.,451988,11575464,FAILED,N,PERIODIC,3142 N LARAMIE AVE,3142,N,LARAMIE,AVE,8725,,41.93818437,-87.75682082,"(41.93818436624998, -87.75682081696436)"
7088329,12/18/2023,12/18/2023,OPEN,,ARRANGE FOR REINSPECTION REGAR,INTERIOR:002 :,"INTERIOR OF BUILDING , NO ENTRY NO RESPONSE . UNABLE TO VERIFY SMOKE OR CARBON MONOXIDE ALARMS.",BL00904,13001867,FAILED,N,PERIODIC,301 S CENTRAL AVE,301,S,CENTRAL,AVE,14710,,41.8764963,-87.76457647,"(41.876496295825454, -87.76457647277704)"
7221543,09/18/2024,09/18/2024,OPEN,,ARRANGE FOR REINSPECTION REGAR,OTHER   :    :OTHER,INTERIOR OF BUILDING - NO RESPONSE. UNVERIFIED DETECTORS AND CONDITIONS. UNABLE TO INSPECT INTERIOR STAIRWAY SYSTEMS.,451988,11082317,FAILED,N,PERIODIC,3136 N BROADWAY,3136,N,BROADWAY,,8162,8.0,41.93877853,-87.64450312,"(41.93877852533577, -87.64450311758098)"
6012100,04/12/2023,06/01/2018,COMPLIED,04/12/2023,ARRANGE FOR REINSPECTION REGAR,OTHER   :    :OTHER,INTERIOR OF BUILDING /NO RESPONSE. UNABLE TO VERIFY DETECTORS AND CONDITIONS. UNABLE TO INSPECT INTERIOR STAIRWAY SYSTEMS.,451988,12620132,FAILED,N,PERIODIC,4922 N KEDZIE AVE,4922,N,KEDZIE,AVE,11855,,41.97098232,-87.70869313,"(41.97098232039577, -87.7086931333292)"
7066404,10/30/2023,10/30/2023,OPEN,,ARRANGE FOR REINSPECTION REGAR,INTERIOR:002 :,"INTERIOR OF BUILDING AND PORCHES, NO ENTRY NO RESPONSE . UNABLE TO VERIFY SMOKE OR CARBON MONOXIDE ALARMS.",BL00904,13561843,FAILED,N,PERIODIC,1 S PARKSIDE AVE,1,S,PARKSIDE,AVE,14750,,41.88017082,-87.76634593,"(41.8801708230404, -87.76634592652181)"
7141981,03/29/2024,03/29/2024,OPEN,,ARRANGE FOR REINSPECTION REGAR,OTHER   :    :OTHER,INTERIOR OF BUILDING - NO RESPONSE. UNVERIFIED DETECTORS AND CONDITIONS. UNABLE TO INSPECT INTERIOR STAIRWAY SYSTEMS. UNABLE TO CONFIRM INTERIOR COMPLAINT OF BASEMENT OCCUPANCY AND ROACH INFESTATION.,451988,12009006,FAILED,N,PERIODIC,3055 N MILWAUKEE AVE,3055,N,MILWAUKEE,AVE,8664,,41.93678038,-87.71981734,"(41.936780375027034, -87.71981734084218)"
7031382,08/26/2023,08/26/2023,OPEN,,ARRANGE FOR REINSPECTION REGAR,"OTHER   :    :.,",INTERIOR OF BUILDING /MOST APARTMENTS AND COMMON SPACES - NO ENTRY. UNVERIFIED DETECTORS AND CONDITIONS.,455370,12948509,FAILED,N,PERIODIC,916 W FULLERTON AVE,916,W,FULLERTON,AVE,7393,35.0,41.92551413,-87.65191108,"(41.92551413291245, -87.65191108000175)"
7083314,11/27/2023,11/27/2023,OPEN,,ARRANGE FOR REINSPECTION REGAR,OTHER   :    :OTHER,INTERIOR OF BUILDING /MOST APARTMENTS AND COMMON SPACES - NO ENTRY. UNVERIFIED DETECTORS AND CONDITIONS. UNVERIFIED COMPLAINT OF MOLD-LIKE SUBSTANCE IN UNIT 6.,455370,12976226,FAILED,N,PERIODIC,3301 W 63RD ST,3301,W,63RD,ST,19790,3.0,41.7788227,-87.70567679,"(41.778822697431195, -87.70567679028619)"
7205099,08/15/2024,08/15/2024,OPEN,,ARRANGE FOR REINSPECTION REGAR,"OTHER   :    :BUILDING,","NO RESPONSE; NO ENTRY. UNABLE TO INSPECT INTERIOR, STAIRWELLS, APARTMENTS, BASEMENT, REAR PREMISES, AND REAR PORCHES.  UNVERIFIED DETECTORS AN CONDITIONS.",BL01000,13245893,FAILED,N,PERIODIC,8057 S MARSHFIELD AVE,8057,S,MARSHFIELD,AVE,21199,69.0,41.74684728,-87.66441558,"(41.746847277375686, -87.664415584487)"
7162838,05/14/2024,05/14/2024,OPEN,,ARRANGE FOR REINSPECTION REGAR,INTERIOR:001 :,"INTERIOR OF BUILDING , NO ENTRY NO RESPONSE . UNABLE TO VERIFY SMOKE OR CARBON MONOXIDE ALARMS",BL00904,10743216,FAILED,N,PERIODIC,1546 N HOMAN AVE,1546,N,HOMAN,AVE,5135,,41.90965531,-87.71204232,"(41.90965531038527, -87.71204232204185)"
7224830,09/25/2024,09/25/2024,OPEN,,ARRANGE FOR REINSPECTION REGAR,INTERIOR:001 :,"INTERIOR OF BUILDING , NO ENTRY NO RESPONSE . UNABLE TO VERIFY SMOKE OR CARBON MONOXIDE ALARMS.",BL00904,11987909,FAILED,N,PERIODIC,949 N HOYNE AVE,949,N,HOYNE,AVE,3487,,41.89915187,-87.6794437,"(41.89915187262313, -87.67944369574477)"
6778822,08/06/2024,04/14/2022,OPEN,,ARRANGE FOR REINSPECTION REGAR,"OTHER   :    :GENERAL,","NO ENTRY INTO THE FRONT INTERIOR STAIRWAYS, APARTMENTS OR BASEMENT TO VERIFY EGRESS, EXIT SIGNS, CARBON MONOXIDE DETECTORS, SMOKE DETECTORS, INTERIOR STRUCTURAL, COSMETIC OR ENVIRONMENTAL CONDITIONS",478976,13810571,FAILED,N,PERIODIC,6952 S PAXTON AVE,6952,S,PAXTON,AVE,20060,,41.76828773,-87.57161008,"(41.76828773068701, -87.57161008274215)"
7050495,09/27/2023,09/27/2023,OPEN,,ARRANGE FOR REINSPECTION REGAR,"OTHER   :    :BUILDING,","NO RESPONSE; NO ENTRY.  UNABLE TO INSPECT INTERIOR, STAIRWELLS, APARTMENTS, BASEMENT, REAR PREMISES, AND REAR PORCH.  UNVERIFIED DETECTORS  AND CONDITIONS.",BL01000,12942816,FAILED,N,PERIODIC,7135 S YALE AVE,7135,S,YALE,AVE,20456,,41.76436358,-87.63083056,"(41.76436357725423, -87.63083055537263)"
7243054,10/31/2024,10/31/2024,OPEN,,ARRANGE FOR REINSPECTION REGAR,"OTHER   :    :.,","ARRANGE FOR REINSPECTION. INTERIOR OF BUILDING - NO ENTRY. UNVERIFIED DETECTORS AND CONDITIONS. UNABLE TO INSPECT FRONT YARD, INTERIOR OF BUILDING INCLUDING ALL UNITS, SIDE ENCLOSED PORCHES. NOT ABLE TO VERIFY COMPLAINT OF ROOF LEAK, WATER DAMAGE, NO HEAT.",478976,13587611,FAILED,N,PERIODIC,6701 N GREENVIEW AVE,6701,N,GREENVIEW,AVE,13336,,42.00368096,-87.667966,"(42.00368095586932, -87.6679659987917)"
7228956,10/01/2024,10/01/2024,OPEN,,ARRANGE FOR REINSPECTION REGAR,OTHER   :    :OTHER,INTERIOR OF BUILDING - NO RESPONSE. UNVERIFIED DETECTORS AND CONDITIONS. UNABLE TO INSPECT INTERIOR STAIRWAY SYSTEMS. UNABLE TO CONFIRM INTERIOR COMPLAINT ON MOLD INFESTATION.,478934,13830465,FAILED,N,PERIODIC,7012 S PAXTON AVE,7012,S,PAXTON,AVE,20062,42.0,41.7676264,-87.57159126,"(41.76762640110776, -87.57159126305848)"
7058884,10/13/2023,10/13/2023,OPEN,,ARRANGE FOR REINSPECTION REGAR,OTHER   :    :OTHER,"INTERIOR OF MOST APTS. - NO RESPONSE, UNVERIFIED DETECTORS AND CONDITIONS. UNABLE TO VERIFY COMPLAINT AT 5940 BASEMENT UNIT FOR CEILING AND WALLS LEAKING WATER AND RATS.",371335,13637716,FAILED,N,PERIODIC,5938 S CALUMET AVE,5938,S,CALUMET,AVE,19256,,41.78632983,-87.61753964,"(41.786329831012104, -87.61753963932823)"
7076765,11/17/2023,11/17/2023,OPEN,,ARRANGE FOR REINSPECTION REGAR,"OTHER   :    :.,",INTERIOR OF BUILDING - NO RESPONSE. UNVERIFIED DETECTORS AND CONDITIONS. UNABLE TO INSPECT ALL INTERIOR STAIRWAY SYSTEMS OR BASEMENT STORAGE/MECHANICAL AREAS.,451988,13556170,FAILED,N,PERIODIC,5160 W MONTROSE AVE,5160,W,MONTROSE,AVE,11373,,41.96071503,-87.75693512,"(41.960715032841975, -87.75693512329251)"
7119395,02/10/2024,02/10/2024,OPEN,,ARRANGE FOR REINSPECTION REGAR,INTERIOR:-1  :,"INTERIOR OF BUILDING , NO ENTRY NO RESPONSE . UNABLE TO VERIFY SMOKE OR CARBON MONOXIDE ALARMS.",BL00904,14224105,FAILED,N,COMPLAINT,2453 N OAK PARK AVE,2453,N,OAK PARK,AVE,109769,,41.92515976,-87.79514281,"(41.92515976337274, -87.79514281059541)"
6951147,05/02/2023,05/02/2023,OPEN,,ARRANGE FOR REINSPECTION REGAR,INTERIOR:001 :,"INTERIOR OF BUILDING ,NO ENTRY  NO RESPONSE . UNABLE TO VERIFY SMOKE OR CARBON MONOXIDE ALARMS.",BL00904,11855668,FAILED,N,PERIODIC,4705 N TROY ST,4705,N,TROY,ST,11189,60.0,41.96684664,-87.70705559,"(41.966846636581174, -87.70705558564929)"
7182572,06/27/2024,06/27/2024,OPEN,,ARRANGE FOR REINSPECTION REGAR,INTERIOR:010 :,"ARRANGE FOR INSPECTION / UNABLE TO VERIFY CONDITIONS, DETECTORS AND OR OCCUPANCY TO MOST UNITS. ARRANGE FOR INSPECTION FOR UNITS 1008 REGARDING CEILING AND WINDOW CONCERNS AND UNIT 1004 REGARDING PEST INFESTATION.",447020,13558206,FAILED,N,PERIODIC,4415 N SHERIDAN RD,4415,N,SHERIDAN,RD,10765,34.0,41.96226388,-87.65460801,"(41.96226387795013, -87.654608007833)"
7170295,05/29/2024,05/29/2024,OPEN,,ARRANGE FOR REINSPECTION REGAR,"OTHER   :    :BUILDING,","NO RESPONSE; NO ENTRY.  UNABLE TO INSPECT INTERIOR, STAIRWELLS, APARTMENTS, BASEMENT, REAR PREMISES, REAR PORCHES AND PREVIOUS VIOLATIONS FROM INSPECTIONS #12864018 AND #13241387.  UNVERIFIED DETECTORS AND CONDITIONS.",BL01000,14101789,FAILED,N,PERIODIC,1962 E 73RD PL,1962,E,73RD,PL,20340,,41.76170804,-87.57681308,"(41.76170804086587, -87.57681307945491)"
7192798,07/23/2024,07/23/2024,OPEN,,ARRANGE FOR REINSPECTION REGAR,INTERIOR:001 :,"INTERIOR OF BUILDING , REAR YARD AND PORCHES, NO ENTRY NO RESPONSE  . UNABLE TO VERIFY SMOKE OR CARBON MONOXIDE ALARMS AND CONDITIONS.",BL00904,14420589,FAILED,N,COMPLAINT,1512 N OAKLEY BLVD,1512,N,OAKLEY,BLVD,61477,33.0,41.90895775,-87.68489039,"(41.908957752018786, -87.68489039187922)"
7017214,08/03/2023,08/03/2023,OPEN,,ARRANGE FOR REINSPECTION REGAR,OTHER   :    :OTHER,"INTERIVOR OF BUILDING-NO RESPONSE,REFUSED ENTRY AT ENTRANCE #A.UNVERIFIED DETECTORS AND CONDITIONS. UNVERIFIED INTERIOR INSPECTION FOR 2023 ANNUAL INSPECTION.",BL00708,14126902,FAILED,N,COMPLAINT,1755 W ALBION AVE,1755,W,ALBION,AVE,13388,,42.00154799,-87.67449159,"(42.00154799183488, -87.67449158848916)"
7203595,08/14/2024,08/14/2024,OPEN,,ARRANGE FOR REINSPECTION REGAR,INTERIOR:001 :,"INTERIOR OF BUILDING , NO ENTRY NO RESPONSE . UNABLE TO VERIFY SMOKE OR CARBON MONOXIDE ALARMS.",BL00904,14086839,FAILED,N,PERIODIC,1481 W ERIE ST,1481,W,ERIE,ST,2184,,41.89326015,-87.6654942,"(41.89326015449359, -87.66549419490126)"
6955144,05/11/2023,05/11/2023,OPEN,,ARRANGE FOR REINSPECTION REGAR,OTHER   :    :OTHER,"INTERIOR OF BUILDING-FIRST FLOOR REAR APARTMENT,SECOND AND THIRD FLOOR APARTMENTS,NO RESPONSE,UNVERIFIED DETECTORS AND CONDITIONS.UNVERIFIED INSPECTION FOR 2023 ANNUAL INSPECTION.",BL00708,12950128,FAILED,N,PERIODIC,3845 W MONTROSE AVE,3845,W,MONTROSE,AVE,10573,,41.96087486,-87.72476715,"(41.960874859391154, -87.72476715162782)"
6954528,05/10/2023,05/10/2023,OPEN,,ARRANGE FOR REINSPECTION REGAR,INTERIOR:001 :,"INTERIOR OF BUILDING ,NO ENTRY  NO RESPONSE . UNABLE TO VERIFY SMOKE OR CARBON MONOXIDE ALARMS.",BL00904,12699914,FAILED,N,PERIODIC,4937 N ST LOUIS AVE,4937,N,ST LOUIS,AVE,11893,,41.97121525,-87.71573952,"(41.971215254448474, -87.7157395196588)"
6849400,09/16/2024,09/14/2022,NO ENTRY,,ARRANGE FOR REINSPECTION REGAR,INTERIOR:001 :,"INTERIOR OF BUILDING , NO RESPONSE . UNABLE TO VERIFY SMOKE OR CARBON MONOXIDE ALARMS.",BL00904,13867042,FAILED,N,PERIODIC,105 N LAMON AVE,105,N,LAMON,AVE,1553,,41.88198396,-87.74763536,"(41.88198396184587, -87.74763536084765)"
6841826,04/03/2023,08/29/2022,OPEN,,ARRANGE FOR REINSPECTION REGAR,INTERIOR:001 :,"INTERIOR OF BUILDING , NO RESPONSE . UNABLE TO VERIFY SMOKE OR CARBON MONOXIDE ALARMS.",447020,13860842,FAILED,N,PERIODIC,1114 W POLK ST,1114,W,POLK,ST,15023,,41.87192226,-87.654868,"(41.87192225908343, -87.65486799676366)"
7177700,06/13/2024,06/13/2024,OPEN,,ARRANGE FOR REINSPECTION REGAR,OTHER   :    :OTHER,INTERIOR OF BUILDING - NO RESPONSE. UNVERIFIED DETECTORS AND CONDITIONS. UNABLE TO INSPECT INTERIOR STAIRWAY SYSTEMS.,451988,14264038,FAILED,N,PERIODIC,7618 N EASTLAKE TER,7618,N,EASTLAKE,TER,14152,,42.0198507,-87.66489035,"(42.01985070095189, -87.66489035320191)"
7055431,10/07/2023,10/07/2023,OPEN,,ARRANGE FOR REINSPECTION REGAR,INTERIOR:001 :,"INTERIOR OF BUILDING , NO ENTRY NO RESPONSE . UNABLE TO VERIFY SMOKE OR CARBON MONOXIDE ALARMS.",BL00904,12323802,FAILED,N,PERIODIC,431 N DRAKE AVE,431,N,DRAKE,AVE,2492,,41.88918535,-87.71476438,"(41.88918535065072, -87.71476437758989)"
7050337,09/25/2023,09/25/2023,OPEN,,ARRANGE FOR REINSPECTION REGAR,OTHER   :    :OTHER,INTERIOR OF BUILDING /MOST APARTMENTS AND COMMON SPACES - NO ENTRY. UNABLE TO VERIFY DETECTORS AND CONDITIONS.,455370,13613500,FAILED,N,PERIODIC,909 E 50TH ST,909,E,50TH,ST,18406,,41.80400293,-87.60335431,"(41.80400293135226, -87.6033543083879)"
5027165,01/03/2024,04/13/2015,OPEN,,ARRANGE FOR REINSPECTION REGAR,OTHER   :    :,NO ENTRY TO BASEMENT.,87296,14179718,FAILED,N,COMPLAINT,9907 S EWING AVE,9907,S,EWING,AVE,492566,,41.71554363,-87.53512986,"(41.71554362600707, -87.5351298565599)"
7202405,08/08/2024,08/08/2024,OPEN,,ARRANGE FOR REINSPECTION REGAR,OTHER   :    :OTHER,INTERIOR OF BUILDING  /MOST APTS - NO RESPONSE. UNVERIFIED DETECTORS AND CONDITIONS.,282126,11634388,FAILED,N,PERIODIC,5251 N ROCKWELL ST,5251,N,ROCKWELL,ST,12231,,41.97739989,-87.69395484,"(41.977399889917386, -87.69395483690657)"
4914688,03/28/2024,11/20/2014,COMPLIED,03/28/2024,ARRANGE FOR REINSPECTION REGAR,OTHER   :    :,NO ENTRY TO BASEMENT AND 2ND FLR.AREA.,BL01037,14119188,PASSED,N,COMPLAINT,3514 W PIERCE AVE,3514,W,PIERCE,AVE,63748,,41.9092011,-87.71498165,"(41.90920109949232, -87.71498164555761)"
6373980,04/26/2023,10/30/2019,OPEN,,ARRANGE FOR REINSPECTION REGAR,OTHER   :    :OTHER,"NO ENTRY TO INTERIOR, NEED FULL INTERIOR INSPECTION ON BUILDING.",87296,13034078,FAILED,N,PERIODIC,330 E 103RD ST,330,E,103RD,ST,21563,41.0,41.70740324,-87.61505132,"(41.70740324257893, -87.61505131783854)"
6609316,06/27/2024,05/18/2017,COMPLIED,06/27/2024,ARRANGE FOR REINSPECTION REGAR,OTHER   :    :INTERIOR,INTERIOR OF BUILDING - OWNER REFUSED ENTRY TO BOILER ROOM.,478976,13553340,FAILED,N,PERIODIC,2920 W PALMER ST,2920,W,PALMER,ST,6817,,41.92176406,-87.70108366,"(41.92176406061924, -87.70108365913966)"
5699546,07/01/2023,03/24/2016,NO ENTRY,,ARRANGE FOR REINSPECTION REGAR,OTHER   :    :OTHER,"INTERIOR OF BUILDING - NO RESPONSE, UNVERIFIED DETECTORS OCCUPANCY AND CONDITIONS.",BL00904,11853909,FAILED,N,PERIODIC,38 N CENTRAL AVE,38,N,CENTRAL,AVE,1650,,41.88138748,-87.76504291,"(41.88138748093545, -87.7650429083511)"
7160529,05/08/2024,05/08/2024,OPEN,,ARRANGE FOR REINSPECTION REGAR,"OTHER   :    :.,",INTERIOR OF BUILDING /NO RESPONSE. UNVERIFIED DETECTORS AND CONDITIONS. UNABLE TO INSPECT INTERIOR STAIRWAY SYSTEMS.,282126,11916264,FAILED,N,PERIODIC,1055 W GLENLAKE AVE,1055,W,GLENLAKE,AVE,12699,,41.99221664,-87.65761606,"(41.99221663846345, -87.65761606104755)"
6999698,08/17/2023,07/06/2023,COMPLIED,08/17/2023,ARRANGE FOR REINSPECTION REGAR,OTHER   :    :OTHER,INTERIOR OF BUILDING - NO RESPONSE. UNVERIFIED DETECTORS AND CONDITIONS. UNABLE TO INSPECT INTERIOR STAIRWAY SYSTEMS. UNABLE TO CONFIRM BASEMENT OCCUPANCY.,451988,14116387,CLOSED,N,COMPLAINT,2112 N CENTRAL PARK AVE,2112,N,CENTRAL PARK,AVE,6947,,41.9195377,-87.71698675,"(41.91953769733636, -87.71698674967203)"
7246221,11/04/2024,11/04/2024,OPEN,,ARRANGE FOR REINSPECTION REGAR,"OTHER   :    :.,",INTERIOR OF BUILDING /MOST APARTMENTS - NO ENTRY. UNVERIFIED DETECTORS AND CONDITIONS. UNVERIFIED COMPLAINT OF MISSING SMOKE ALARM IN 818-1S.,455370,12645747,FAILED,N,PERIODIC,816 E 49TH ST,816,E,49TH,ST,18433,47.0,41.80601317,-87.60571564,"(41.806013165530146, -87.60571563606297)"
7158551,05/03/2024,05/03/2024,OPEN,,ARRANGE FOR REINSPECTION REGAR,INTERIOR:001 :,"INTERIOR OF BUILDING , NO ENTRY NO RESPONSE . UNABLE TO VERIFY SMOKE OR CARBON MONOXIDE ALARMS.",BL00904,10573941,FAILED,N,PERIODIC,5031 W FULTON ST,5031,W,FULTON,ST,1551,,41.8855764,-87.75162553,"(41.885576402658565, -87.75162553406143)"
7137293,03/16/2024,03/16/2024,OPEN,,ARRANGE FOR REINSPECTION REGAR,OTHER   :    :OTHER,"THERE HAVE BEEN NUMEROUS CPD COMPLAINTS REGARDING ONGOIN LARGE, UNLICENSED EVENTS AT THIS SERIES OF STOREFRONT COMMERCIAL SPACES. THIS TASK FORCE, AFTED OBSERVING LARGE GATHERINGS OF PEOPLE OUT FRONT WAITING TO ENTER, ATTEMPTED ENTRY, BUT HAD THE DOOR SLAMMED ON US EACH TIME. AN INTERIOR INSPECTION IS REQUIRED TO DETERMINE THE SAFETY OF THIS UNLICENSED VENUE.SECTION 14A-1-104.7.",BL00685,14314649,FAILED,N,COMPLAINT,5624 W DIVISION ST,5624,W,DIVISION,ST,68193,,41.90223836,-87.76665321,"(41.90223835822309, -87.76665320619276)"
7167614,05/22/2024,05/22/2024,OPEN,,ARRANGE FOR REINSPECTION REGAR,OTHER   :    :OTHER,INTERIOR OF BUILDING - NO RESPONSE. UNVERIFIED DETECTORS AND CONDITIONS.,282126,12577948,FAILED,N,PERIODIC,1628 W SHERWIN AVE,1628,W,SHERWIN,AVE,14016,,42.01501568,-87.67143896,"(42.01501568366585, -87.67143895902615)"
7245577,11/07/2024,11/07/2024,OPEN,,ARRANGE FOR REINSPECTION REGAR,INTERIOR:001 :,"INTERIOR OF BUILDING , NO ENTRY NO RESPONSE . UNABLE TO VERIFY SMOKE OR CARBON MONOXIDE ALARMS.UNABLE TO VERIFY RODENT COMPLAINT.",BL00904,14457854,FAILED,N,COMPLAINT,3914 W GLADYS AVE,3914,W,GLADYS,AVE,248941,,41.87631053,-87.72373057,"(41.876310524740546, -87.72373056572397)"
7214448,09/04/2024,09/04/2024,OPEN,,ARRANGE FOR REINSPECTION REGAR,OTHER   :    :OTHER,INTERIOR OF BUILDING - NO RESPONSE. UNVERIFIED DETECTORS AND CONDITIONS. UNABLE TO INSPECT INTERIOR STAIRWAY SYSTEMS. UNABLE TO CONFIRM INTERIOR COMPLAINT OF BROKEN MAILBOXES. ALL GATES LOCKED AT TIME OF INSPECTION UNABLE TO INSPECT WOOD PORCHES AT SOUTH AND EAST ELEVATIONS.,478934,12736412,FAILED,N,PERIODIC,7929 S STATE ST,7929,S,STATE,ST,20874,,41.75009277,-87.62437772,"(41.75009277367659, -87.62437772246108)"
7153321,04/22/2024,04/22/2024,OPEN,,ARRANGE FOR REINSPECTION REGAR,"OTHER   :    :BUILDING,","NO RESPONSE; NO ENTRY.  UNABLE TO INSPECT INTERIOR, APARTMENTS, STAIRWELLS, BASMENT, REAR PREMISES, REAR PORCHES, AND PREVIOUS VIOLATION FROM INSPECTION #10983981.  UNVERIFIED DETECTORS AND CONDITIONS.",BL01000,12936900,FAILED,N,PERIODIC,7001 S CLYDE AVE,7001,S,CLYDE,AVE,19966,42.0,41.76792009,-87.57375591,"(41.767920088487934, -87.5737559131967)"
6936527,03/30/2023,03/30/2023,OPEN,,ARRANGE FOR REINSPECTION REGAR,OTHER   :    :OTHER,XVBVB,451988,11842940,FAILED,N,PERIODIC,3831 N FREMONT ST,3831,N,FREMONT,ST,9696,18.0,41.95211386,-87.65190207,"(41.9521138583151, -87.65190206777577)"
6699022,02/03/2023,03/19/2018,OPEN,,ARRANGE FOR REINSPECTION REGAR,OTHER   :    :OTHER,"NO ENTRY TO MOST UNITS, NEED FULL INTERIOR INSPECTION. ENTRY REFUSED TO 7133 THRU 7149 S./ STAIRWAYS AND DWELLING UNITS.",BL00831,13618601,FAILED,N,PERIODIC,7131 S BENNETT AVE,7131,S,BENNETT,AVE,20274,42.0,41.76514887,-87.57920259,"(41.76514887332406, -87.57920259173682)"
6964613,06/05/2023,06/05/2023,OPEN,,ARRANGE FOR REINSPECTION REGAR,OTHER   :    :OTHER,"INTERIOR OF BUILDING-NO RESPONSE,UNVERIFIED DETECTORS AND CONDITIONS. UNVERIFIED INTERIOR INSPECTION FOR 2023 ANNUAL INSPECTION.",BL00708,11594055,FAILED,N,PERIODIC,7200 N CLAREMONT AVE,7200,N,CLAREMONT,AVE,14038,,42.0123601,-87.6890544,"(42.01236009708477, -87.68905439844458)"
7051071,09/29/2023,09/29/2023,OPEN,,ARRANGE FOR REINSPECTION REGAR,OTHER   :    :OTHER,"INTERIOR OF BUILDING -  NO ENTRY, UNVEERIFIED DETECTORS , CONDITIONS AND OCCUPANCY. UNABLE TO VERIFY COMPLAINT AT BASEMENT FOR SEWAGE BACKING UP.",371335,14148225,FAILED,N,COMPLAINT,555 E 88TH PL,555,E,88TH,PL,461230,,41.73372362,-87.60987301,"(41.73372362188788, -87.609873012885)"
7070942,11/06/2023,11/06/2023,OPEN,,ARRANGE FOR REINSPECTION REGAR,OTHER   :    :OTHER,INTERIOR OF BUILDING /MOST APARTMENTS - NO RESPONSE. UNVERIFIED DETECTORS AND CONDITIONS. UNABLE TO INSPECT ALL INTERIOR STAIRWAY SYSTEMS.,451988,12055550,FAILED,N,PERIODIC,4664 N SPAULDING AVE,4664,N,SPAULDING,AVE,11275,60.0,41.9664558,-87.71100757,"(41.966455801046635, -87.71100756718431)"
6866724,11/02/2023,10/20/2022,NO ENTRY,,ARRANGE FOR REINSPECTION REGAR,INTERIOR:001 :,"INTEROR OF BUILDING , NO RESPONSE . UNABLE TO VERIFY SMOKE OR CARBON MONOXIDE ALARMS.",BL00904,13881449,FAILED,N,PERIODIC,5024 W QUINCY ST,5024,W,QUINCY,ST,14694,,41.87773488,-87.75043641,"(41.87773487902668, -87.75043640951213)"
7137927,03/23/2024,03/23/2024,OPEN,,ARRANGE FOR REINSPECTION REGAR,INTERIOR:004 :,"INTERIOR OF BUILDING INCLUDING BASEMENT AND ATTIC, NO ENTRY NO RESPONSE . UNABLE TO VERIFY SMOKE OR CARBON MONOXIDE ALARMS.",BL00904,14315190,FAILED,N,COMPLAINT,1362 N BOSWORTH AVE,1362,N,BOSWORTH,AVE,4567,33.0,41.90688345,-87.6664194,"(41.90688344548569, -87.66641939924018)"
6945006,04/19/2023,04/19/2023,OPEN,,ARRANGE FOR REINSPECTION REGAR,INTERIOR:001 :,"INTERIOR OF BUILDING , NO RESPONSE . UNABLE TO VERIFY SMOKE OR CARBON MONOXIDE ALARMS.ENTRY TO STAIRWAYS 5529 AND 5537 ONLY. NO REPSONSE TO DOOR KNOCKS.",BL00904,12704257,FAILED,N,PERIODIC,45 N CENTRAL AVE,45,N,CENTRAL,AVE,1587,,41.88162483,-87.76475677,"(41.88162482996783, -87.76475676959484)"
7240410,10/29/2024,10/29/2024,OPEN,,ARRANGE FOR REINSPECTION REGAR,INTERIOR:001 :,"INTERIOR OF BUILDING , NO ENTRY NO RESPONSE . UNABLE TO VERIFY SMOKE OR CARBON MONOXIDE ALARMS.",BL00904,12590444,FAILED,N,PERIODIC,5567 W ADAMS ST,5567,W,ADAMS,ST,14704,,41.87824072,-87.76438799,"(41.87824071680441, -87.76438798885799)"
7153516,04/18/2024,04/18/2024,OPEN,,ARRANGE FOR REINSPECTION REGAR,"OTHER   :    :.,",INTERIOR OF BUILDING - NO RESPONSE. UNVERIFIED DETECTORS AND CONDITIONS. UNABLE TO INSPECT INTERIOR STAIRWAY SYSTEMS. UNABLE TO CONFIRM INTERIOR COMPLAINT OF EXPIRED EXTINGUISHERS.,451988,12704271,FAILED,N,PERIODIC,921 W OAKDALE AVE,921,W,OAKDALE,AVE,8257,,41.93528416,-87.65239961,"(41.93528416205741, -87.65239960868766)"
7244606,11/05/2024,11/05/2024,OPEN,,ARRANGE FOR REINSPECTION REGAR,INTERIOR:001 :,"INTERIOR OF BUILDING , NO ENTRY NO RESPONSE . UNABLE TO VERIFY SMOKE OR CARBON MONOXIDE ALARMS.",BL00904,13863375,FAILED,N,PERIODIC,31 N LOREL AVE,31,N,LOREL,AVE,1612,,41.8812992,-87.75862054,"(41.881299199557894, -87.75862053499047)"
7006948,04/01/2024,07/12/2023,COMPLIED,04/01/2024,ARRANGE FOR REINSPECTION REGAR,OTHER   :    :OTHER,INTERIOR OF BUILDING - NO RESPONSE. UNVERIFIED DETECTORS AND CONDITIONS. UNABLE TO INSPECT INTERIOR STAIRWAY SYSTEMS. UNABLE TO CONFIRM INTERIOR COMPLAINT OF DEFECTIVE SMOKE DETECTORS.,451988,14121323,FAILED,N,PERIODIC,4045 W SCHOOL ST,4045,W,SCHOOL,ST,9512,,41.94074663,-87.72907882,"(41.94074662592095, -87.72907882249739)"
6878009,04/10/2023,11/07/2022,COMPLIED,04/07/2023,ARRANGE FOR REINSPECTION REGAR,OTHER   :    451988,INTERIOR AND REAR OF BUILDING /MOST APARTMENTS AND PORCHES - NO ENTRY. UNVERIFIED DETECTORS AND CONDITIONS.,455370,11707033,FAILED,N,PERIODIC,5531 N CAMPBELL AVE,5531,N,CAMPBELL,AVE,12246,,41.98229099,-87.69169428,"(41.982290992078774, -87.69169428223563)"
6302252,06/22/2023,07/17/2019,OPEN,,ARRANGE FOR REINSPECTION REGAR,OTHER   :    :OTHER,"NO ENTRY TO BASEMENT AREA, DOG IN BASEMENT.",60527,14111252,FAILED,N,COMPLAINT,8558 S WOODLAWN AVE,8558,S,WOODLAWN,AVE,448536,,41.73854275,-87.5944971,"(41.73854275216017, -87.59449710091958)"
6199241,12/27/2024,02/21/2019,OPEN,,ARRANGE FOR REINSPECTION REGAR,"OTHER   :    :OTHER,","INTERIOR OF THE BUILDING - NO RESPONSE, UNVERIFIED DETECTORS AND CONDITIONS. 5939 S. / 1ST FLOOR APARTMENT - NO ENTRY, UNABLE TO VERIFY COMPLAINT OF BATHROOM CEILING CAVING IN; WATER LEAKING FROM UPSTAIRS APARTMENT; WIRING PROBLEMS; KITCHEN FLOOR CAVING IN.",BL00941,14472495,FAILED,N,COMPLAINT,5939 S BISHOP ST,5939,S,BISHOP,ST,363884,,41.78563788,-87.66058226,"(41.785637880172274, -87.66058225502387)"
7083543,12/04/2023,12/04/2023,OPEN,,ARRANGE FOR REINSPECTION REGAR,OTHER   :    :OTHER,INTERIOR OF BUILDING - NO RESPONSE. UNVERIFIED DETECTORS AND CONDITIONS. UNABLE TO INSPECT INTERIOR STAIRWAY SYSTEMS. UNABLE TO CONFIRM INTERIOR COMPLAINT OF FAULTY SMOKE DETECTORS.,451988,14019451,FAILED,N,PERIODIC,3435 N BROADWAY,3435,N,BROADWAY,,8789,8.0,41.94427376,-87.6452301,"(41.94427375830472, -87.64523010305217)"
6810042,04/26/2023,06/22/2022,OPEN,,ARRANGE FOR REINSPECTION REGAR,OTHER   :    :OTHER,"INTERIOR OF BUILDING- MOST APARTMENTS,NO RESPONSE.UNVERIFIED DETECTORS AND CONDITIONS. NO ACCESS TO BOILSR ROOM. UNVERIFIED COMPLAINT OF APT. #08-BROKEN BATHROOM WINDOW.",BL00708,13835044,FAILED,N,PERIODIC,540 W WELLINGTON AVE,540,W,WELLINGTON,AVE,8142,8.0,41.93664397,-87.6434837,"(41.93664397219385, -87.64348369881792)"
7239510,10/25/2024,10/25/2024,OPEN,,ARRANGE FOR REINSPECTION REGAR,OTHER   :    :OTHER,INTERIOR OF BUILDING - NO RESPONSE. UNVERIFIED DETECTORS AND CONDITIONS. UNABLE TO INSPECT INTERIOR STAIRWAY SYSTEMS.,478934,12657980,FAILED,N,PERIODIC,448 E 80TH ST,448,E,80TH,ST,20942,51.0,41.74943551,-87.61287952,"(41.74943550560798, -87.6128795200495)"
6839670,08/06/2024,08/24/2022,COMPLIED,08/06/2024,ARRANGE FOR REINSPECTION REGAR,INTERIOR:001 :,"INTERIOR OF BUILDING , NO RESPONSE . UNABLE TO VERIFY SMOKE OR CARBON MONOXIDE ALARMS.",464422,13859193,PASSED,N,PERIODIC,1750 N CLARK ST,1750,N,CLARK,ST,5278,,41.9143422,-87.63373572,"(41.91434219938819, -87.63373571866379)"
5395196,10/07/2023,05/04/2016,COMPLIED,10/07/2023,ARRANGE FOR REINSPECTION REGAR,OTHER   :    :OTHER,"INTERIOR OF BUILDING - NO RESPONSE, UNVERIFIED DETECTORS OCCUPANCY AND CONDITIONS.UNABLE TO INSPECT PORCH(S) FROM ALLEY SCREEN, - SECURITY GATE.UNABLE TO GAIN ENTRY, FRONT AND REAR IRON GATE, UNABLE TO PERFORM 2016 ANNUAL INSPECTION.",BL00904,11925156,FAILED,N,PERIODIC,3420 W DICKENS AVE,3420,W,DICKENS,AVE,6856,,41.91926459,-87.71283184,"(41.919264591944774, -87.71283183534646)"
7185961,07/03/2024,07/03/2024,OPEN,,ARRANGE FOR REINSPECTION REGAR,OTHER   :    :OTHER,ARRANGE INSPECTIONS WITH RESPECTIVE TRADES REGARDING PERMIT #100866110,455370,14398623,FAILED,N,COMPLAINT,3644 W 64TH ST,3644,W,64TH,ST,386587,,41.77706053,-87.71481542,"(41.77706052988757, -87.7148154183836)"
6966357,11/06/2023,06/01/2023,COMPLIED,11/02/2023,ARRANGE FOR REINSPECTION REGAR,OTHER   :    :OTHER,INTERIOR OF BUILDING - NO RESPONSE. UNVERIFIED DETECTORS AND CONDITIONS. UNABLE TO INSPECT INTERIOR STAIRWAY SYSTEMS. UNABLE TO CONFIRM INTERIOR COMPLAINT OF MOLD INFESTATION WITHIN APT 1W.,451988,11615234,FAILED,N,PERIODIC,5036 N OAKLEY AVE,5036,N,OAKLEY,AVE,11727,,41.97331617,-87.68678415,"(41.973316166253184, -87.6867841541323)"
7035354,09/05/2023,09/05/2023,OPEN,,ARRANGE FOR REINSPECTION REGAR,OTHER   :    :OTHER,"INTERIOR OF BUILDING-NO RESPONSE,UNVERIFIED DETECTORS AND CONDITIONS FOR 2023 ANNUAL INTERIOR INSPECTION.",BL00708,12354871,FAILED,N,PERIODIC,5034 N TROY ST,5034,N,TROY,ST,11816,,41.97315473,-87.70753327,"(41.973154734070306, -87.70753327357421)"
7222557,09/19/2024,09/19/2024,OPEN,,ARRANGE FOR REINSPECTION REGAR,OTHER   :    :OTHER,INTERIOR OF BUILDING - NO RESPONSE. UNVERIFIED DETECTORS AND CONDITIONS. UNABLE TO INSPECT INTERIOR STAIRWAY SYSTEMS. 1334 - 36 DOOR LOCKED.,478934,13846258,FAILED,N,PERIODIC,1334 E 76TH ST,1334,E,76TH,ST,20546,,41.75700363,-87.5918235,"(41.75700363016266, -87.5918235011834)"
7146316,04/09/2024,04/09/2024,OPEN,,ARRANGE FOR REINSPECTION REGAR,INTERIOR:001 :,"INTERIOR OF BUILDING , NO ENTRY NO RESPONSE . UNABLE TO VERIFY SMOKE OR CARBON MONOXIDE ALARMS.",BL00904,13561251,FAILED,N,PERIODIC,8 N LONG AVE,8,N,LONG,AVE,1609,,41.880579,-87.76027649,"(41.880579000780486, -87.76027648909907)"
7174749,06/10/2024,06/10/2024,OPEN,,ARRANGE FOR REINSPECTION REGAR,INTERIOR:002 :,"ARRANGE FOR INSPECTION / UNABLE TO VERIFY INTERIOR CONDITIONS, DETECTORS AND OR OCCUPANCY.",447020,13864292,FAILED,N,PERIODIC,2014 W WABANSIA AVE,2014,W,WABANSIA,AVE,5721,33.0,41.91240364,-87.67816499,"(41.91240363849448, -87.67816498544441)"
6623757,08/09/2023,06/05/2021,NO ENTRY,,ARRANGE FOR REINSPECTION REGAR,"OTHER   :    :INTERIOR,",INTERIOIR OF BUILDING - NO RESPONCE - UNVERIFIED DETECTORS AND CONDITIONS.,447020,13563214,FAILED,N,PERIODIC,6910 N ASHLAND BLVD,6910,N,ASHLAND,BLVD,13730,24.0,42.00696567,-87.67014825,"(42.00696566700151, -87.67014825238155)"
6964587,05/07/2024,06/05/2023,COMPLIED,05/07/2024,ARRANGE FOR REINSPECTION REGAR,OTHER   :    :OTHER,"INTERIOR OF BUILDING- NO RESPONSE TO MOST APARTMENTS,STAIRWAYS,AND BASEMENT AREAS.UNVERIFIED INTERIOR INSPECTION FOR 2023 ANNUAL INSPECTION.",451988,14102727,FAILED,N,PERIODIC,1434 W JARVIS AVE,1434,W,JARVIS,AVE,13945,,42.0161708,-87.6675428,"(42.01617080248836, -87.66754279631171)"
6946929,04/21/2023,04/21/2023,OPEN,,ARRANGE FOR REINSPECTION REGAR,INTERIOR:002 :,"INTERIOR OF BUILDING ,NO ENTRY  NO RESPONSE . UNABLE TO VERIFY SMOKE OR CARBON MONOXIDE ALARMS. ENTRY TO 1F APT ONLY.  3YRS NO COMPLIANCE",BL00904,13827688,FAILED,N,PERIODIC,2744 W 18TH ST,2744,W,18TH,ST,16501,,41.85750855,-87.69497176,"(41.857508546861055, -87.69497175990526)"
7020730,08/08/2023,08/08/2023,OPEN,,ARRANGE FOR REINSPECTION REGAR,OTHER   :    :OTHER,"INTERIOR OF BUILDING-NO RESPONSE,UNVERIFIED DETECTORS AND CONDITIONS UNVERIFIED INTERIOR INSPECTION FOR 2023 ANNUAL INSPECTION .",BL00708,11640401,FAILED,N,PERIODIC,2114 N KEDZIE AVE,2114,N,KEDZIE,AVE,6875,,41.91972606,-87.70719655,"(41.91972605868691, -87.70719655165414)"
7206506,08/14/2024,08/14/2024,OPEN,,ARRANGE FOR REINSPECTION REGAR,"OTHER   :    :GENERAL,","NO ENTRY INTO COMMON RESIDENTIAL SPACES, APARTMENTS OR BASEMENTS TO VERIFY EGRESS, CARBON MONOXIDE DETECTORS, SMOKE DETECTORS, INTERIOR STRUCTURAL, COSMETIC OR ENVIRONMENTAL CONDITIONS",112463,14137799,FAILED,N,PERIODIC,5017 S CHAMPLAIN AVE,5017,S,CHAMPLAIN,AVE,18332,47.0,41.80343326,-87.60992414,"(41.803433254882165, -87.60992414361093)"
7167257,05/22/2024,05/22/2024,OPEN,,ARRANGE FOR REINSPECTION REGAR,INTERIOR:001 :,"INTERIOR OF BUILDING , NO ENTRY NO RESPONSE . UNABLE TO VERIFY SMOKE OR CARBON MONOXIDE ALARMS.GROUP",BL00904,12636054,FAILED,N,PERIODIC,4136 W KAMERLING AVE,4136,W,KAMERLING,AVE,5198,,41.90542525,-87.73033898,"(41.905425251095984, -87.73033898143525)"
5159881,12/07/2023,08/21/2015,COMPLIED,12/07/2023,ARRANGE FOR REINSPECTION REGAR,OTHER   :    :,"INTERIOR OF BASEMENT- NO ENTRY, UNABLE TO VERIFY OCCUPANCY.",BL00875,14115828,PASSED,N,COMPLAINT,1432 S TRUMBULL AVE,1432,S,TRUMBULL,AVE,264351,,41.86139999,-87.71176745,"(41.8613999858563, -87.71176744949007)"
7136369,07/19/2024,03/18/2024,COMPLIED,07/19/2024,ARRANGE FOR REINSPECTION REGAR,OTHER   :    :OTHER,"INTERIOR OF BUILDING - NO ENTRY, UNVERIFIED DETECTORS AND CONDITIONS.",87296,14314042,FAILED,N,COMPLAINT,8630 S COLFAX AVE,8630,S,COLFAX,AVE,450346,,41.73813751,-87.56130934,"(41.73813750897451, -87.561309344096)"
5015319,10/31/2024,03/30/2015,OPEN,,ARRANGE FOR REINSPECTION REGAR,OTHER   :    :,"INTERIOR OF BUILDING- ENTRY REFUSED BY OCCUPANT, UNVERIFIED DETECTORS, CONDITIONS, LAYOUT, AND OCCUPANCY. 2ND REQUEST FOR INTERIOR INSPECTION [SEE INSPECTION #11433221 DATED 02/06/2015]. UNABLE TO INSPECT INTERIOR STAIRWAYS AND REAR ENCLOSED PORCH.",BL01037,14455820,FAILED,N,COMPLAINT,4125 W CRYSTAL ST,4125,W,CRYSTAL,ST,65241,,41.90341795,-87.72982533,"(41.90341795154331, -87.72982532832467)"
7009934,11/04/2024,07/24/2023,OPEN,,ARRANGE FOR REINSPECTION REGAR,"OTHER   :    :BUILDING,","UNABLE TO INSPECT ALL APARTMENTS, BASEMENT, LAUNDRY AND BOILER ROOM.  UNVERIFIED DETECTORS AND CONDITIONS.",478934,14122828,FAILED,N,PERIODIC,3075 E CHELTENHAM PL,3075,E,CHELTENHAM,PL,20723,49.0,41.75316481,-87.5499341,"(41.75316480582199, -87.54993410170239)"
7033694,08/30/2023,08/30/2023,OPEN,,ARRANGE FOR REINSPECTION REGAR,"OTHER   :    :BUILDING,","UNABLE TO INSPECT INTERIOR, STAIRWELLS, APARTMENTS, BASEMENT, ALL STOREFRONTS, REAR PREMISES, AND REAR STAIR SYSTEM.  UNVERIFIED DETECTORS AND CONDITIONS.",BL01000,12946628,FAILED,N,PERIODIC,1962 E 73RD ST,1962,E,73RD,ST,20314,,41.76261665,-87.57684166,"(41.76261664663573, -87.57684166230149)"
7244629,10/28/2024,10/28/2024,OPEN,,ARRANGE FOR REINSPECTION REGAR,OTHER   :    :OTHER,ARRANGE FOR REINSPECTION. UNVERIFIED DETECTORS AND CONDITIONS. UNABLE TO INSPECT INTERIOR OF BUILDING INCLUDING ALL UNITS.,478976,14090893,FAILED,N,PERIODIC,4428 N ASHLAND AVE,4428,N,ASHLAND,AVE,10991,31.0,41.96247299,-87.66942844,"(41.96247298761631, -87.66942844236002)"
6968390,11/16/2023,06/10/2023,COMPLIED,11/09/2023,ARRANGE FOR REINSPECTION REGAR,INTERIOR:002 :BL00831,"INTERIOR OF BUILDING ,NO ENTRY  NO RESPONSE . UNABLE TO VERIFY SMOKE OR CARBON MONOXIDE ALARMS.UNABLE TO VERIFY REAR APARTMENTS FOR BALCONY ACCESS.",BL00876,14105011,CLOSED,N,COMPLAINT,5004 S WOODLAWN AVE,5004,S,WOODLAWN,AVE,319039,,41.80400908,-87.59688039,"(41.804009077157154, -87.59688038525249)"
7052746,10/02/2023,10/02/2023,OPEN,,ARRANGE FOR REINSPECTION REGAR,OTHER   :    :OTHER,INTERIOR OF BUILDING /MOST APARTMENTS - NO RESPONSE. UNVERIFIED DETECTORS AND CONDITIONS. UNABLE TO INSPECT ALL INTERIOR STAIRWAY SYSTEMS.,451988,13553494,FAILED,N,PERIODIC,7715 N HERMITAGE AVE,7715,N,HERMITAGE,AVE,14190,,42.02148276,-87.67410225,"(42.0214827555883, -87.67410224542535)"
6450075,05/10/2024,03/13/2020,OPEN,,ARRANGE FOR REINSPECTION REGAR,"OTHER   :    :OTHER,","INTERIOR OF THE BUILDING - NO RESPONSE, UNVERIFIED DETECTORS AND CONDITIONS.",455370,13246326,FAILED,N,PERIODIC,2205 S WABASH AVE,2205,S,WABASH,AVE,16696,,41.85265416,-87.62534967,"(41.85265416319823, -87.6253496685291)"
6830848,04/26/2024,08/06/2022,COMPLIED,04/26/2024,ARRANGE FOR REINSPECTION REGAR,INTERIOR:001 :,"INTERIOR OF BUILDING , NO RESPONSE . UNABLE TO VERIFY SMOKE OR CARBON MONOXIDE ALARMS.",451988,14092110,PASSED,N,PERIODIC,2815 W BYRON ST,2815,W,BYRON,ST,10001,,41.95204051,-87.69884115,"(41.952040512727706, -87.69884114778228)"
7173898,06/03/2024,06/03/2024,OPEN,,ARRANGE FOR REINSPECTION REGAR,"OTHER   :    :BUILDING,","NO RESPONSE;  NO ENTRY.  UNABLE TO INSPECT INTERIOR, STAIRWELLS, APARTMENTS, BASEMENT, REAR PREMISES, AND REAR PORCH.  UNVERIFIED DETECTORS AND CONDITIONS.",BL01000,11916103,FAILED,N,PERIODIC,6111 S DR MARTIN L KING JR DR,6111,S,DR MARTIN L KING JR,DR,19344,,41.78351433,-87.61555728,"(41.78351432639306, -87.61555727847006)"
6723320,02/09/2024,12/16/2021,OPEN,,ARRANGE FOR REINSPECTION REGAR,"OTHER   :    :GENERAL,","NO ENTRY INTO FROUND FLOOR, COMMON AREAS, MECHANICAL SPACES OR APARTMENTS TO VERIFY EGRESS, EXIT SIGNS, FIRE EXTINGUISHERS, CARBON MONOXIDE DETECTORS, SMOKE DETECTORS, INTERIOR STRUCTURAL, COSMETIC OR ENVIRONMENTAL CONDITIONS",BL00685,13636864,FAILED,N,PERIODIC,6426 S STONY ISLAND AVE,6426,S,STONY ISLAND,AVE,19664,,41.77795355,-87.58652921,"(41.77795355309823, -87.58652920876447)"
7089075,08/21/2024,12/20/2023,OPEN,,ARRANGE FOR REINSPECTION REGAR,INTERIOR:002 :,"INTERIOR OF BUILDING , NO ENTRY NO RESPONSE . UNABLE TO VERIFY SMOKE OR CARBON MONOXIDE ALARMS.",BL00904,14176650,FAILED,N,PERIODIC,10 S MASON AVE,10,S,MASON,AVE,14756,,41.8797978,-87.77315857,"(41.879797803751025, -87.77315857006911)"
7138908,03/21/2024,03/21/2024,OPEN,,ARRANGE FOR REINSPECTION REGAR,OTHER   :    :OTHER,INTERIOR OF BUILDING - NO RESPONSE. UNVERIFIED DETECTORS AND CONDITIONS. UNABLE TO INSPECT INTERIOR STAIRWAY SYSTEMS.,451988,14144039,FAILED,N,PERIODIC,7001 N SHERIDAN RD,7001,N,SHERIDAN,RD,13602,,42.0092697,-87.66196532,"(42.009269701478395, -87.66196531868208)"
6986667,06/22/2023,06/22/2023,OPEN,,ARRANGE FOR REINSPECTION REGAR,INTERIOR:001 :,"INTERIOR OF BUILDING ,NO ENTRY  NO RESPONSE . UNABLE TO VERIFY SMOKE OR CARBON MONOXIDE ALARMS.ENTRY TO 331 STAIRWAY ONLY",BL00904,13552943,FAILED,N,PERIODIC,331 N PINE AVE,331,N,PINE,AVE,1625,,41.88670566,-87.76326344,"(41.88670565520489, -87.76326344416421)"
6480230,08/30/2023,07/08/2020,COMPLIED,08/30/2023,ARRANGE FOR REINSPECTION REGAR,"OTHER   :    :BUILDING,","UNABLE TO INSPECT INTERIOR, STAIRWELLS, APPARTMENTS, AND BASEMENT DUE TO COVID-19 PANDEMIC.  UNVERIFIED DETECTORS AND CONDITIONS.",BL00831,13289531,FAILED,N,PERIODIC,4624 S ELLIS AVE,4624,S,ELLIS,AVE,18127,47.0,41.81063739,-87.60186885,"(41.81063738991923, -87.60186884782422)"
6356125,10/10/2023,10/02/2019,COMPLIED,10/10/2023,ARRANGE FOR REINSPECTION REGAR,OTHER   :    :OTHER,"INTERIOR OF MOST APTS. - NO RESPONSE, UNVERIFIED DETECTORS AND CONDITIONS.",371335,12559977,FAILED,N,PERIODIC,8100 S JUSTINE ST,8100,S,JUSTINE,ST,21148,69.0,41.74663982,-87.66227587,"(41.74663982161097, -87.6622758721806)"
6612197,10/01/2024,05/15/2021,COMPLIED,10/01/2024,ARRANGE FOR REINSPECTION REGAR,"OTHER   :    :.,",NO INTERIOR ENTRY. UNVERIFIED DETECTORS AND CONDITIONS.,478976,13555457,FAILED,N,PERIODIC,840 W AINSLIE ST,840,W,AINSLIE,ST,11400,,41.97173054,-87.65180452,"(41.971730538693684, -87.65180452326118)"
7015500,08/01/2023,07/19/2023,OPEN,,ARRANGE FOR REINSPECTION REGAR,"OTHER   :    :5467 1ST FLOOR,",STORE HAS DROP TILED CEILING REMOVE TILES FOR FULL INSPECTION.,BL00748,14126080,FAILED,N,COMPLAINT,5467 W CHICAGO AVE,5467,W,CHICAGO,AVE,22292,,41.894759,-87.76332225,"(41.89475899998373, -87.76332224650253)"
6135816,10/30/2024,11/07/2018,COMPLIED,10/28/2024,ARRANGE FOR REINSPECTION REGAR,OTHER   :    :,GAINED ENTRY TO ENTIRE BUILDING AND SOME UNITS BUT NOT ALL TO VERIFY OCCUPANCY AND DETECTORS.,BL00722,11565431,FAILED,N,PERIODIC,4520 N SHERIDAN RD,4520,N,SHERIDAN,RD,10775,34.0,41.9642294,-87.65492042,"(41.96422939722127, -87.65492042007959)"
7209523,08/23/2024,08/23/2024,OPEN,,ARRANGE FOR REINSPECTION REGAR,OTHER   :    :OTHER,INTERIOR OF BUILDING - NO RESPONSE. UNVERIFIED DETECTORS AND CONDITIONS. UNABLE TO INSPECT INTERIOR STAIRWAY SYSTEMS.,478934,14432327,FAILED,N,COMPLAINT,11031 S DR MARTIN L KING JR DR,11031,S,DR MARTIN L KING JR,DR,21685,,41.69370244,-87.61325472,"(41.69370243995834, -87.61325472449552)"
7029513,08/22/2023,08/22/2023,OPEN,,ARRANGE FOR REINSPECTION REGAR,"OTHER   :    :.,",INTERIOR OF BUILDING - NO RESPONSE. UNVERIFIED DETECTORS AND CONDITIONS. UNABLE TO INSPECT INTERIOR STAIRWAY SYSTEMS. UNABLE TO CONFIRM INTERIOR COMPLAINT OF BED BUG INFESTATION.,451988,13888011,FAILED,N,PERIODIC,1715 W NORTH SHORE AVE,1715,W,NORTH SHORE,AVE,13424,24.0,42.00339435,-87.67307398,"(42.00339435187359, -87.67307398387459)"
6303111,01/18/2023,07/18/2019,COMPLIED,01/18/2023,ARRANGE FOR REINSPECTION REGAR,OTHER   :    :OTHER,"INTERIOR OF BUILDING - NO RESPONSE, UNVERIFIED DETECTORS, BUILDING AND STAIR DATA.",207370,9948431,FAILED,N,PERIODIC,1316 N WESTERN AVE,1316,N,WESTERN,AVE,5031,,41.90538414,-87.68723722,"(41.9053841356203, -87.68723721900864)"
7056932,10/11/2023,10/11/2023,OPEN,,ARRANGE FOR REINSPECTION REGAR,OTHER   :    :OTHER,"INTERIOR OF BUILDING-NO RESPONSE,UNVERIFIED DETECTORS AND CONDITIONS. UNVERIFIED INTERIOR INSPECTION FOR 2023 ANNUAL INSPECTION.",BL00708,13890580,FAILED,N,PERIODIC,851 W MONTROSE AVE,851,W,MONTROSE,AVE,10210,34.0,41.96170384,-87.65195168,"(41.96170383486639, -87.65195167826572)"
6959155,05/22/2023,05/22/2023,OPEN,,ARRANGE FOR REINSPECTION REGAR,OTHER   :    :OTHER,"INTERIOR OF BUILDING-NO RESPONSE,UNVERIFIED DETECTORS AND CONDITIONS.UNVERIFIED INTERIOR INSPECTION FOR 2023 ANNUAL INSPECTION.",BL00708,12237969,FAILED,N,PERIODIC,2610 N LARAMIE AVE,2610,N,LARAMIE,AVE,7854,,41.92815931,-87.75644498,"(41.92815931371059, -87.75644497770031)"
7140415,03/25/2024,03/25/2024,OPEN,,ARRANGE FOR REINSPECTION REGAR,"OTHER   :    :BUILDING,","UNABLE TO INSPECT INTERIOR, STAIRWELLS, APARTMENTS, BASEMENT, REAR PREMISES, AND REAR PORCHES.  UNVERIFIED DETECTORS AND CONDITIONS.",BL01000,14104028,FAILED,N,PERIODIC,914 E 82ND ST,914,E,82ND,ST,21009,,41.7459402,-87.60195703,"(41.74594020063595, -87.6019570271088)"
6833839,10/24/2024,08/12/2022,OPEN,,ARRANGE FOR REINSPECTION REGAR,INTERIOR:001 :,"INTERIOR OF BUILDING , NO RESPONSE . UNABLE TO VERIFY SMOKE OR CARBON MONOXIDE ALARMS.2YRS NO COMPLIANCE",BL00904,13854501,FAILED,N,PERIODIC,5014 W WEST END AVE,5014,W,WEST END,AVE,1584,,41.88316966,-87.75092555,"(41.883169656547715, -87.7509255446251)"
7191048,07/18/2024,07/18/2024,OPEN,,ARRANGE FOR REINSPECTION REGAR,INTERIOR:001 :,"INTERIOR OF BUILDING , NO ENTRY NO RESPONSE . UNABLE TO VERIFY SMOKE OR CARBON MONOXIDE ALARMS.",BL00904,12253461,FAILED,N,PERIODIC,5314 W WASHINGTON BLVD,5314,W,WASHINGTON,BLVD,1637,,41.88244122,-87.75828752,"(41.88244121925911, -87.75828751831845)"
6602734,10/15/2024,05/01/2021,COMPLIED,10/15/2024,ARRANGE FOR REINSPECTION REGAR,OTHER   :    :OTHER,"INTERIOR OF BUILDING /NO RESPONSE. UNVERIFIED DETECTORS AND CONDITIONS.SR#213803537 & SR#213569443 - UNVERIFIED COMPLAINTS OF 4519N & 4521N /FRONT STAIRWAY CEILING COLLAPSING, AND WATER DAMAGED WALLS.",451988,13549644,FAILED,N,PERIODIC,4517 N MILWAUKEE AVE,4517,N,MILWAUKEE,AVE,11371,,41.96296311,-87.75632292,"(41.962963107905765, -87.75632292261513)"
4668371,04/16/2024,02/25/2014,COMPLIED,04/16/2024,ARRANGE FOR REINSPECTION REGAR,OTHER   :    :BUILDING,"NO ENTRY.  UNABLE TO INSPECT INTERIOR, STAIRWELLS, APARTMENTS, ALL STOREFRONTS,  BASEMENT, AND REAR PREMISES.  UNVERIFIED DETECTORS AND OCCUPANCY.",BL00941,11204904,FAILED,N,PERIODIC,7542 S HALSTED ST,7542,S,HALSTED,ST,20787,,41.75657912,-87.64434207,"(41.75657912070773, -87.64434206886949)"
6937451,03/31/2023,03/31/2023,OPEN,,ARRANGE FOR REINSPECTION REGAR,OTHER   :    :OTHER,INTERIOR OF BUILDING - NO RESPONSE. UNVERIFIED DETECTORS AND CONDITIONS. UNABLE TO INSPECT INTERIOR STAIRWAY SYSTEMS. UNABLE TO CONFIRM INTERIOR COMPLAINT OF INSECT INFESTATION.,451988,13549645,FAILED,N,PERIODIC,5061 N CLARK ST,5061,N,CLARK,ST,11552,22.0,41.97427145,-87.66804956,"(41.974271446353676, -87.66804956330829)"
7148002,04/11/2024,04/11/2024,OPEN,,ARRANGE FOR REINSPECTION REGAR,INTERIOR:003 :UNIT 3A,ARRANGE FOR INSPECTION / CONTACT BUILDING DEPARTMENT FOR VIOLATION REMOVAL ONCE COMPLIED.,447020,13006165,FAILED,N,PERIODIC,505 W BELMONT AVE,505,W,BELMONT,AVE,7936,,41.93996966,-87.64220596,"(41.93996966158108, -87.6422059638586)"
6719180,02/09/2023,12/02/2021,COMPLIED,09/30/2022,ARRANGE FOR REINSPECTION REGAR,,PROVIDE ACCESS TO CEILING TO PERFORM FULL INSPECTION 14A-1-104.7,196492,13633289,PASSED,N,COMPLAINT,4641 S DR MARTIN L KING JR DR,4641,S,DR MARTIN L KING JR,DR,308630,56.0,41.81004191,-87.61646112,"(41.81004191151609, -87.61646112336591)"
6849449,05/03/2024,09/14/2022,NO ENTRY,,ARRANGE FOR REINSPECTION REGAR,INTERIOR:001 :,"ENTRY TO  STAIRWAYS, LAUNDRY  AND MECHANICAL ROOMS ONLY. PER JANITOR , NO NOTICE GIVEN TO TENANTS.",BL00904,14157106,FAILED,N,PERIODIC,431 N CENTRAL AVE,431,N,CENTRAL,AVE,2542,,41.88868799,-87.76500812,"(41.888687984534386, -87.7650081169857)"
7268527,10/28/2024,10/28/2024,OPEN,,ARRANGE FOR REINSPECTION REGAR,OTHER   :    :OTHER,ARRANGE FOR REINSPECTION. UNVERIFIED DETECTORS AND CONDITIONS. UNABLE TO INSPECT INTERIOR OF BUILDING INCLUDING MOST UNITS AND SIDE FIRE ESCAPES.,478976,14144083,FAILED,N,PERIODIC,4536 N MAGNOLIA AVE,4536,N,MAGNOLIA,AVE,10887,34.0,41.96463129,-87.66115311,"(41.964631286182716, -87.66115311080515)"
6939663,04/10/2023,04/10/2023,OPEN,,ARRANGE FOR REINSPECTION REGAR,INTERIOR:001 :,INTERIOR OF BUILDING YARD NO RESPONSE . UNABLE TO VERIFY SMOKE OR CARBON MONOXIDE ALARMS.,BL00904,14082026,FAILED,N,COMPLAINT,541 N AVERS AVE,541,N,AVERS,AVE,40564,,41.8911314,-87.72214509,"(41.891131404461774, -87.72214508730555)"
6427544,02/14/2023,01/30/2020,COMPLIED,02/14/2023,ARRANGE FOR REINSPECTION REGAR,"OTHER   :    :OTHER,","INTERIOR OF THE BUILDING - NO RESPONSE, UNVERIFIED DETECTORS AND CONDITIONS. 4950 S. / BASEMENT APARTMENT - NO ENTRY, UNABLE TO VERIFY COMPLAINT OF BEDROOM FLOOR CAVING IN.",207370,13080337,PASSED,N,COMPLAINT,4950 S HOYNE AVE,4950,S,HOYNE,AVE,323618,,41.80332305,-87.67713256,"(41.80332305229809, -87.67713256238027)"
7234445,10/15/2024,10/15/2024,OPEN,,ARRANGE FOR REINSPECTION REGAR,INTERIOR:001 :,"INTERIOR OF BUILDING , NO ENTRY NO RESPONSE . UNABLE TO VERIFY SMOKE OR CARBON MONOXIDE ALARMS.3YRS NO COMPLIANCE.",BL00904,14106270,FAILED,N,PERIODIC,160 N LOTUS AVE,160,N,LOTUS,AVE,1621,,41.88406381,-87.76182057,"(41.88406380600247, -87.76182056487853)"
5585653,07/25/2023,12/21/2016,COMPLIED,07/25/2023,ARRANGE FOR REINSPECTION REGAR,OTHER   :    :BUILDING,"UNABLE TO INSPECT INTERIOR, STAIRWELLS, APARTMENTS, BASEMENT, EXTERIOR PREMISES, ALL REAR PORCHES, AND SPECIFICALLY UNIT #4732-1E FOR COMPLAINT OF BUGS.  UNVERIFIED DETECTORS AND CONDITIONS.",451988,12052107,FAILED,N,PERIODIC,4720 N RACINE AVE,4720,N,RACINE,AVE,10919,34.0,41.96787099,-87.659807,"(41.96787098541622, -87.6598070006684)"
7186035,06/28/2024,06/28/2024,OPEN,,ARRANGE FOR REINSPECTION REGAR,OTHER   :    :OTHER,INTERIOR OF BUILDING /MOST UNITS - NO RESPONSE. UNVERIFIED DETECTORS AND CONDITIONS.,282126,13024707,FAILED,N,PERIODIC,6101 N SHERIDAN RD,6101,N,SHERIDAN,RD,12747,,41.99247323,-87.65531238,"(41.99247322685175, -87.6553123790606)"
7160143,05/22/2024,05/07/2024,COMPLIED,05/20/2024,ARRANGE FOR REINSPECTION REGAR,INTERIOR:003 :,"ARRANGE FOR INSPECTION / UNABLE TO VERIFY INTERIOR CONDITIONS, OCCUPANCY, AND OR DETECTORS IN MOST UNITS. UNABLE TO VERIFY REAR PORCH CONDITIONS.",447020,14262923,FAILED,N,PERIODIC,6832 N SHERIDAN RD,6832,N,SHERIDAN,RD,13631,54.0,42.00655744,-87.6613785,"(42.006557435752974, -87.66137849663444)"
7194574,07/25/2024,07/25/2024,OPEN,,ARRANGE FOR REINSPECTION REGAR,INTERIOR:-1  :,"INTERIOR OF BUILDING , NO ENTRY NO RESPONSE . UNABLE TO VERIFY SMOKE OR CARBON MONOXIDE ALARMS.NO ENTRY TO BASEMENT.",BL00904,14421683,FAILED,N,COMPLAINT,4410 S LOWE AVE,4410,S,LOWE,AVE,311047,,41.81403929,-87.64217913,"(41.81403929285123, -87.64217913279)"
5722476,04/20/2024,05/15/2017,OPEN,,ARRANGE FOR REINSPECTION REGAR,OTHER   :    :OTHER,INTERIOR OF BUILDING NO RESPONSE. UNVERIFIED COMPLAINT AT 5911 APT 3 FOR HOLES IN FOORS AND MICE. UNABLE TO VERIFY CONDITINS OF APTS AND BASEMENTS.,371335,12255881,FAILED,N,PERIODIC,109 E 59TH ST,109,E,59TH,ST,19263,,41.78731685,-87.62185124,"(41.787316850142055, -87.62185123648052)"
7155017,04/19/2024,04/19/2024,OPEN,,ARRANGE FOR REINSPECTION REGAR,"OTHER   :    :BUILDING,","NO RESPONSE; NO ENTRY.  UNABLE TO INSPECT INTERIOR, STAIRWELLS, APARTMENTS, BASEMENT, REAR PREMISES, REAR PORCHES, AND PREVIOUS VIOLATIONS ON INSPECTION #12272614.  UNVERIFIED DETECTORS AND CONDITIONS.",BL01000,14103315,FAILED,N,PERIODIC,8238 S ELLIS AVE,8238,S,ELLIS,AVE,20996,,41.74468603,-87.60029378,"(41.74468602736401, -87.60029378097138)"
5688720,09/14/2023,03/02/2016,OPEN,,ARRANGE FOR REINSPECTION REGAR,OTHER   :    :OTHER,"DWELLING UNITS, NO ENTRY. UNABLE TO VERIFY DETECTORS, CONDITIONS AND OCCUPANCY. UNABLE TO COMPLETE 2023 ANNUAL INSPECTION. NO ENTRY TO UNIT 3219 W./ -B1 TO VERFY COMPLAINT OF CAVING CEILING, ROTTED FLOOR INFESTATION OF RATS, BED BUGS AND WATER BUGS.",BL00831,11839967,FAILED,N,PERIODIC,3213 W 62ND PL,3213,W,62ND,PL,19548,3.0,41.7797754,-87.70373046,"(41.779775394899566, -87.70373046399631)"
2554783,12/16/2024,04/01/2008,COMPLIED,12/16/2024,ARRANGE FOR REINSPECTION REGAR,371335,"SR#800320901 NO ENTRY TO APARTMENTS 7509,7505 2 SOUTH TO REINSPECT VIOLATIONS, OR SOUTH PORCHES.",BL00444,2296366,FAILED,N,PERIODIC,7503 S YATES BLVD,7503,S,YATES,BLVD,20685,49.0,41.75884123,-87.56622351,"(41.75884123312081, -87.5662235136362)"
7252781,11/25/2024,11/25/2024,OPEN,,ARRANGE FOR REINSPECTION REGAR,INTERIOR:002 :,"INTERIOR OF BUILDING , NO ENTRY NO RESPONSE . UNABLE TO VERIFY SMOKE OR CARBON MONOXIDE ALARMS OR CONDITIONS.",BL00904,13625322,FAILED,N,PERIODIC,633 N CICERO AVE,633,N,CICERO,AVE,2528,,41.89231802,-87.74556872,"(41.89231802030073, -87.74556872149367)"
7140130,04/03/2024,03/27/2024,OPEN,,ARRANGE FOR REINSPECTION REGAR,6 COMMERCIAL UNITS BOTH INTERIOR / EXTERIOR.,"IT WAS OBSERVED AT THE TIME OF THIS INSPECTION THAT THERE WAS EXPOSED WIRTING INSIDE 5624. ALSO, THE (REAR) SERVICE PIPE IS FALLING OFF THE BUILDING. THE FASTENERS HAVE FAILED. ALSO, AT A POINT WHERE A PIPE UNION HAS FAILED, WATER IS ENTERING THIS SERVICE PIPING FROM A LEAKING GUTTER DIRECTLY ABOVE. DANGEROUS AND HAZARDOUS.THIS ELECTRICAL SERVICE IS FOR ALL 6 COMMERCIAL SPACES (5616, 5618, 5620, 5622, 5622 1/2 AND 5624). A FULL CBI WITH A TASK FORCE (TEAM ... ELECTRICAL INSPECTOR) IS REQUIRED. SECTION 14X-7-7-3 / 705.",196492,14318931,FAILED,N,COMPLAINT,5624 W DIVISION ST,5624,W,DIVISION,ST,68193,,41.90223836,-87.76665321,"(41.90223835822309, -87.76665320619276)"
6299549,10/10/2023,06/28/2019,OPEN,,ARRANGE FOR REINSPECTION REGAR,OTHER   :    :OTHER,"INTERIOR OF MOST APTS. - NO ENTRY, UNVERIFIED DETECTORS AND CONDITIONS.",371335,12970536,FAILED,N,PERIODIC,2201 E 70TH ST,2201,E,70TH,ST,20054,42.0,41.76791992,-87.57137277,"(41.76791991972515, -87.57137277224486)"
7212502,08/29/2024,08/29/2024,OPEN,,ARRANGE FOR REINSPECTION REGAR,OTHER   :    :OTHER,INTERIOR OF BUILDING /NO RESPONSE. UNVERIFIED DETECTORS AND CONDITIONS. UNVERIFIED COMPLAINT OF 1ST FLOOR - RATS.,282126,10987230,FAILED,N,PERIODIC,2946 N LINCOLN AVE,2946,N,LINCOLN,AVE,8378,27.0,41.93531446,-87.66277987,"(41.935314458924374, -87.66277986824367)"
7173357,06/05/2024,06/05/2024,OPEN,,ARRANGE FOR REINSPECTION REGAR,INTERIOR:002 :,"ARRANGE FOR INSPECTION / UNABLE TO VERIFY INTERIOR CONDITIONS, DETECTORS AND OCCUPANCY TO MOST UNITS AND OR UTILITY ROOMS. UNABLE TO VERIFY CLAIMS AT UNITS 408 - NO HOT WATER, 409 - WATER NOT DRAINING, 400 - MOLD.",447020,13547168,FAILED,N,PERIODIC,4631 N PAULINA ST,4631,N,PAULINA,ST,10964,,41.96615431,-87.67080198,"(41.966154306246366, -87.6708019780974)"
6910676,10/28/2024,03/19/2018,OPEN,,ARRANGE FOR REINSPECTION REGAR,OTHER   :    :OTHER,"INTERIOR OF MOST APTS. -  NO RESPONSE, UNVERIFIED DETECTORS AND CONDITIONS. UNABLE TO VERIFY MULTIPLE COMPLAINTS AT 7131 2S FOR HOLES IN WALLS AND MICE, 7135 APT 1N FOR TRMITES, AT 7139 APT 3N FOR MICE AND ROACHES, 7141 1N FOR KITCHEN CEILING CAVING IN AND ROACHES.",371335,13944286,FAILED,N,PERIODIC,7131 S BENNETT AVE,7131,S,BENNETT,AVE,20274,42.0,41.76514887,-87.57920259,"(41.76514887332406, -87.57920259173682)"
6782527,04/24/2024,04/25/2022,NO ENTRY,,ARRANGE FOR REINSPECTION REGAR,OTHER   :    :OTHER,"INTERIOR OF APTS. - NO ENTRY, UNVERIFIED DETECTORS AND CONDITIONS. UNABLE TO VERIFY COMPLIANT OF BEDBUGS AND MISSING CAULKING AT APT 1B.",371335,13813296,FAILED,N,PERIODIC,1801 E 72ND ST,1801,E,72ND,ST,20289,,41.76417279,-87.58113518,"(41.76417278635852, -87.581135180676)"
7072553,11/09/2023,11/09/2023,OPEN,,ARRANGE FOR REINSPECTION REGAR,OTHER   :    :OTHER,INTERIOR OF BUILDING - NO RESPONSE. UNVERIFIED DETECTORS AND CONDITIONS. UNABLE TO INSPECT INTERIOR STAIRWAY SYSTEMS. UNABLE TO CONFIRM INTERIOR COMPLAINTS OF RODENT INFESTATION AND OVERALL MAINTENANCE ISSUES.,451988,11607240,FAILED,N,PERIODIC,1414 W PRATT BLVD,1414,W,PRATT,BLVD,13695,24.0,42.00555276,-87.66641955,"(42.00555276409832, -87.66641955358054)"
7243210,10/07/2024,10/07/2024,OPEN,,ARRANGE FOR REINSPECTION REGAR,OTHER   :    :OTHER,ARRANGE FOR REINSPECTION. UNVERIFIED DETECTORS AND CONDITIONS. UNABLE TO INSPECT INTERIOR OF BUILDING INCLUDING ALL UNITS AND BALCONY.,478976,14177626,FAILED,N,PERIODIC,1020 W THORNDALE AVE,1020,W,THORNDALE,AVE,12763,,41.99020025,-87.65631783,"(41.99020025218026, -87.65631782611601)"
6149558,08/09/2023,11/27/2018,OPEN,,ARRANGE FOR REINSPECTION REGAR,OTHER   :    :OTHER,"INTERIOR OF MOST APARTMENTS - NO RESPONSE, UNVERIFIED DETECTORS AND DETECTORS.UNABLE TO VERIFY COMPLAINT AT 412 FOR BEDBUGS.",371335,12722857,FAILED,N,PERIODIC,4052 W 115TH ST,4052,W,115TH,ST,21803,,41.68404315,-87.7220268,"(41.68404315198033, -87.72202679774166)"
7183677,07/01/2024,07/01/2024,OPEN,,ARRANGE FOR REINSPECTION REGAR,INTERIOR:002 :,"INTERIOR OF BUILDING , NO ENTRY NO RESPONSE . UNABLE TO VERIFY SMOKE OR CARBON MONOXIDE ALARMS.",BL00904,10249856,FAILED,N,PERIODIC,521 N HOMAN AVE,521,N,HOMAN,AVE,2498,,41.89090846,-87.71115263,"(41.89090846322629, -87.71115263103617)"
7148233,04/05/2024,04/05/2024,OPEN,,ARRANGE FOR REINSPECTION REGAR,"OTHER   :    :BUILDING,","UNABLE TO INSPECT INTERIOR, STAIRWELLS, APARTMENTS, BASEMENT, REAR PREMISES, AND REAR PORCHES.  UNVERIFIED DETECTORS AND CONDITIONS.",BL01000,14136337,FAILED,N,PERIODIC,7708 S SOUTH SHORE DR,7708,S,SOUTH SHORE,DR,20711,,41.75674468,-87.5533508,"(41.75674467505385, -87.55335080293519)"
7056996,10/11/2023,10/11/2023,OPEN,,ARRANGE FOR REINSPECTION REGAR,OTHER   :    :OTHER,"INTERIOR OF BUILDING-NO RESPONSE,UNVERIFIED DETECTORS AND CONDITIONS. UNVERIFIED INTERIOR INSPECTION FOR 2023 ANNUAL INSPECTION.",BL00708,12054800,FAILED,N,PERIODIC,6018 N WINTHROP AVE,6018,N,WINTHROP,AVE,12804,26.0,41.99151853,-87.65840801,"(41.991518533123674, -87.65840800691804)"
7166566,05/20/2024,05/20/2024,OPEN,,ARRANGE FOR REINSPECTION REGAR,"OTHER   :    :BUILDING,","NO RESPONSE; NO ENTRY.  UNABLE TO INSPECT INTERIOR, STAIRWELLS, APARTMENTS, BASEMENT, REAR PREMISES, AND REAR PORCHES.  UNVERIFIED DETECTORS AND CONDITIONS.",BL01000,13812937,FAILED,N,PERIODIC,8241 S ELLIS AVE,8241,S,ELLIS,AVE,20990,50.0,41.74463391,-87.59999927,"(41.744633905585914, -87.59999926969974)"
6943927,04/18/2023,04/18/2023,OPEN,,ARRANGE FOR REINSPECTION REGAR,OTHER   :    :OTHER,"INTERIOR OF BUILDING- NO RESPONSE,UNVERIFIED DETECTORS AND CONDITIONS.UNVERIFIED INSPECTION OF STAIRWAYS AND BASEMENT.",BL00708,10949180,FAILED,N,PERIODIC,6509 N SACRAMENTO AVE,6509,N,SACRAMENTO,AVE,13560,,41.99961744,-87.70443873,"(41.999617437096944, -87.70443873121097)"
7163464,05/15/2024,05/15/2024,OPEN,,ARRANGE FOR REINSPECTION REGAR,INTERIOR:001 :,"INTERIOR OF BUILDING , NO ENTRY NO RESPONSE . UNABLE TO VERIFY SMOKE OR CARBON MONOXIDE ALARMS.",BL00904,14136912,FAILED,N,PERIODIC,2824 W ARMITAGE AVE,2824,W,ARMITAGE,AVE,6767,,41.91758959,-87.6982529,"(41.917589593585454, -87.69825289828418)"
7064089,06/05/2024,10/20/2023,OPEN,,ARRANGE FOR REINSPECTION REGAR,"OTHER   :    :BUILDING,",UNABLE TO INSPECT ALL APARTMENTS AND PREVIOUS VIOLATIONS FROM 2018 ANNUAL INSPECTION.  UNVERIFIED DETECTORS AND CONDITIONS.,371335,14157976,FAILED,N,PERIODIC,848 W 103RD ST,848,W,103RD,ST,21588,45.0,41.70700943,-87.64478166,"(41.70700942737396, -87.64478166031377)"
6609719,10/10/2023,05/08/2021,OPEN,,ARRANGE FOR REINSPECTION REGAR,"OTHER   :    :BUILDING,","NO RESPONSE; NO ENTRY.  UNABLE TO INSPECT INTERIOR, STAIRWELLS, APARTMENTS, BASEMENT, REAR PREMISES, AND REAR PORCHES.  UNVERIFIED DETECTORS AND CONDITIONS.",BL00708,13553628,FAILED,N,PERIODIC,1662 W FARWELL AVE,1662,W,FARWELL,AVE,13759,24.0,42.00668649,-87.67237393,"(42.00668648956368, -87.67237393158189)"
7063939,10/20/2023,10/20/2023,OPEN,,ARRANGE FOR REINSPECTION REGAR,"OTHER   :    :BUILDING,","NO RESPONSE; NO ENTRY.  UNABLE TO INSPECT INTERIOR, STAIRWELLS, APARTMENTS, BASEMENT, REAR PREMISES, REAR PORCHES, AND PREVIOUS VIOLATIONS FROM 2017, 2018, AND 2022 ANNUAL INSPECTIONS.  UNVERIFIED DETECTORS AND CONDITIONS.",BL01000,13898994,FAILED,N,PERIODIC,6838 S JEFFERY BLVD,6838,S,JEFFERY,BLVD,19914,,41.7704573,-87.57656333,"(41.77045730210651, -87.57656332703189)"
6702407,06/21/2023,11/01/2021,OPEN,,ARRANGE FOR REINSPECTION REGAR,OTHER   :    :OTHER,INTERIOR OF BUILDING /APT.201 - NO RESPONSE. UNVERIFIED DETECTORS AND CONDITIONS. UNVERFIED COMPLAINT OF ROACHES.,BL00708,13620697,FAILED,N,PERIODIC,6030 N KENMORE AVE,6030,N,KENMORE,AVE,12727,,41.99184974,-87.65701489,"(41.99184973688305, -87.65701489226979)"
7048111,09/25/2023,09/25/2023,OPEN,,ARRANGE FOR REINSPECTION REGAR,OTHER   :    :OTHER,INTERIOR OF BUILDING-NO RESPOSE UNVERIFIED DETECTORS AND CONDITIONS. UNVERIFIED INTERIOR INSPECTION FOR 2023 ANNUAL INSPECTION.,BL00708,10563844,FAILED,N,PERIODIC,3300 N CLAREMONT AVE,3300,N,CLAREMONT,AVE,9385,,41.94137779,-87.68704028,"(41.94137779332772, -87.68704027993964)"
6629725,10/24/2024,06/10/2021,OPEN,,ARRANGE FOR REINSPECTION REGAR,INTERIOR:003 :,"INTERIOR OF BUILDING, NO RESPONSE, UNABLE TO VERIFY SMOKE AND CARBON MONOXIDE ALARMS.",BL00904,13854501,FAILED,N,PERIODIC,5014 W WEST END AVE,5014,W,WEST END,AVE,1584,,41.88316966,-87.75092555,"(41.883169656547715, -87.7509255446251)"
7220598,09/12/2024,09/12/2024,OPEN,,ARRANGE FOR REINSPECTION REGAR,OTHER   :    :OTHER,INTERIOR OF BUILDING - NO RESPONSE. UNVERIFIED DETECTORS AND CONDITIONS. UNABLE TO INSPECT INTERIOR STAIRWAY SYSTEMS. UNABLE TO CONFIRM INTERIOR COMPLAINT OF RODENT INFESTATION.,451988,14439978,FAILED,N,COMPLAINT,3829 N LAKEWOOD AVE,3829,N,LAKEWOOD,AVE,23258,17.0,41.95190889,-87.66157972,"(41.951908888843626, -87.66157972197661)"
5772081,04/02/2024,07/13/2017,COMPLIED,04/02/2024,ARRANGE FOR REINSPECTION REGAR,OTHER   :    :,"INTERIOR OF BUILDING /808 W. - APT. 306 ¿ NO RESPONSE. UNABLE TO VERIFY DETECTORS, AND CONDITIONS. UNABLE TO INSPECT INTERIOR STAIRWAY. WEST YARD GATE LOCKED. UNABLE TO INSPECT REAR PORCH.",290542,11617121,FAILED,N,PERIODIC,7542 S HALSTED ST,7542,S,HALSTED,ST,20787,,41.75657912,-87.64434207,"(41.75657912070773, -87.64434206886949)"
7058782,10/16/2023,10/16/2023,OPEN,,ARRANGE FOR REINSPECTION REGAR,OTHER   :    :OTHER,"INTERIOR OF BUILDING -  NO RESPONSE, UNVERIFIED DETECTORS AND CONDITIONS. UNABLE TO VERIFY NUMEROUS COMPLAINTS AT 7000 APT 1W FOR WATER LEAKING CAUSING MOLD.",371335,13330651,FAILED,N,PERIODIC,7700 S JEFFERY BLVD,7700,S,JEFFERY,BLVD,20581,,41.75514916,-87.57621047,"(41.75514915849809, -87.57621046618749)"
7131750,03/08/2024,03/08/2024,OPEN,,ARRANGE FOR REINSPECTION REGAR,EXTERIOR:E   :,NEW FRONT PORCH PER PERMIT #101011487 (ISSUED 4/25/2023).  SUBJECT TO FIELD INSPECTION AND FINAL APPROVAL.,BL01000,14260875,FAILED,N,COMPLAINT,8752 S SAGINAW AVE,8752,S,SAGINAW,AVE,465617,,41.73571113,-87.55984014,"(41.735711134165136, -87.55984013908392)"
7069264,10/30/2023,10/30/2023,OPEN,,ARRANGE FOR REINSPECTION REGAR,OTHER   :    :OTHER,INTERIOR OF BUILDING /MOST APARTMENTS - NO RESPONSE. UNVERIFIED DETECTORS AND CONDITIONS. UNABLE TO INSPECT ALL INTERIOR STAIRWAY SYSTEMS. UNABLE TO CONFIRM INTERIOR COMPLAINTS.,451988,13819901,FAILED,N,PERIODIC,1146 N LAWNDALE AVE,1146,N,LAWNDALE,AVE,3787,,41.90232584,-87.7191301,"(41.90232584024073, -87.71913009483062)"
5813946,11/04/2024,08/29/2017,OPEN,,ARRANGE PREMISE INSPECTION,OTHER   :    :,"INTERIOR OF BUILDING - UNVERIFIED CONDITIONS , OCCUPANCY AND DETECTORS . NO ENTRY FIRST FLOOR AND ATTIC TO CHECK CONDITIONS OF UNPERMITTED ATTIC DORMERS AT EAST AND WEST ROOF .",BL01037,14456764,FAILED,N,COMPLAINT,5140 W SCHUBERT AVE,5140,W,SCHUBERT,AVE,106507,,41.92970929,-87.75554466,"(41.92970928518547, -87.75554465534273)"
6938113,03/28/2023,03/28/2023,OPEN,,ARRANGE PREMISE INSPECTION,OTHER   :    :OTHER,INTERIOR OF BUILDING /MOST APARTMENTS - NO ENTRY. UNVERIFIED DETECTORS AND CONDITIONS. UNVERIFIED COMPLAINT OF HOLES IN UNIT 2.,455370,14081147,FAILED,N,COMPLAINT,4506 N CENTRAL PARK AVE,4506,N,CENTRAL PARK,AVE,177847,,41.96314647,-87.71824366,"(41.96314646874633, -87.71824365882276)"
7114099,02/02/2024,12/26/2023,OPEN,,ARRANGE PREMISE INSPECTION,,NO ACCESS TO INTERIOR FOR 2023 ANNUAL INSPECTION,207401,13860722,FAILED,N,PERIODIC,9046 S COTTAGE GROVE AVE,9046,S,COTTAGE GROVE,AVE,461066,51.0,41.72977802,-87.60480654,"(41.72977802185137, -87.60480654004813)"
7120867,02/14/2024,02/14/2024,OPEN,,ARRANGE PREMISE INSPECTION,OTHER   :    :OTHER,"INTERIOR OF BUILDING - NO RESPONSE, UNABLE TO VERFY INTERIOR CONDITIONS.",BL00831,14227613,FAILED,N,COMPLAINT,1722 W 19TH ST,1722,W,19TH,ST,270113,,41.85602959,-87.66965019,"(41.85602959013978, -87.66965019056039)"
6923002,03/02/2023,03/02/2023,OPEN,,ARRANGE PREMISE INSPECTION,"OTHER   :    :BUILDING,","NO RESPONSE; NO ENTRY.  UNABLE TO INSPECT INTERIOR, STAIRWELLS, BASEMENT, ATTIC, AND ENCLOSED REAR PORCH.  UNVERIFIED DETECTORS AND CONDITIONS.",BL01000,14009498,FAILED,N,COMPLAINT,7409 S SANGAMON ST,7409,S,SANGAMON,ST,410311,,41.75939865,-87.64775914,"(41.75939864624493, -87.64775914146065)"
6931341,03/22/2023,03/22/2023,OPEN,,ARRANGE PREMISE INSPECTION,OTHER   :    :OTHER,INTERIOR OF BUILDING - NO RESPONSE. UNVERIFIED DETECTORS AND CONDITIONS. UNABLE TO INSPECT INTERIOR STAIRWAY SYSTEMS. UNABLE TO CONFIRM INTERIOR COMPLAINT OF BROKEN DOOR KNOB AND INTERIOR TEMPERATURE.,451988,14075846,FAILED,N,COMPLAINT,2849 W BERTEAU AVE,2849,W,BERTEAU,AVE,10433,,41.95747904,-87.70034242,"(41.957479040554446, -87.70034242001688)"
7191393,07/17/2024,07/17/2024,OPEN,,ARRANGE PREMISE INSPECTION,OTHER   :    :OTHER,INTERIOR OF BUILDING /MOST APARTMENTS - NO ENTRY. UNVERIFIED DETECTORS AND CONIDTIONS.,455370,14419499,FAILED,N,COMPLAINT,3052 W 24TH ST,3052,W,24TH,ST,16957,,41.84828506,-87.70238296,"(41.84828506262821, -87.70238296413841)"
7049471,09/27/2023,09/27/2023,OPEN,,ARRANGE PREMISE INSPECTION,OTHER   :    :OTHER,"INTERIOR OF APTS. - NO ENTRY, UNVERIFIED DETECTORS AND CONDITIONS. UNABLE TO VERIFY COMPLAINT AT 3RD FLOOR APT. FOR CEILING LEAKING WATER.",371335,14147036,FAILED,N,COMPLAINT,8205 S VERNON AVE,8205,S,VERNON,AVE,430184,,41.74547795,-87.61341059,"(41.745477946065854, -87.61341059034577)"
6806558,06/12/2023,06/10/2022,COMPLIED,06/12/2023,ARRANGE PREMISE INSPECTION,"OTHER   :    :BUILDING,","NO ENTRY.  UNABLE TO INSPECT INTERIOR, STAIRWELLS, COMMON AREAS, AND BASEMENT (IF ANY).   UNVERIFIED DETECTORS AND CONDITIONS.",365764,13831962,FAILED,N,PERIODIC,4281 W 76TH ST,4281,W,76TH,ST,20863,,41.75490046,-87.73004312,"(41.75490046433059, -87.73004311903824)"
4952639,06/09/2023,01/13/2015,COMPLIED,06/01/2023,ARRANGE PREMISE INSPECTION,OTHER   :    :,"INTERIOR OF BUILDING - UNVERIFIED CONDITIONS , OCCUPANCY AND DETECTORS . PROVIDE FOR COMPLETE BUILDING INSPECTION FOR "" NEW ANNUAL BUILDING "" PROGRAM .",447020,11392093,CLOSED,N,COMPLAINT,2523 N HALSTED ST,2523,N,HALSTED,ST,7127,35.0,41.92803652,-87.64870672,"(41.92803651624157, -87.64870672342613)"
6921363,02/27/2023,02/27/2023,OPEN,,ARRANGE PREMISE INSPECTION,OTHER   :    :OTHER,"INTERIOR OF MOST APTS. - NO RESPONSE, UNVERIFIED DETECTORS AND CONDITIONS. UNABLE TO VERIFY  ANONYMOUS COMPLAINT AT 1402 FOR MOLD AND RODENTS.",371335,14007906,FAILED,N,COMPLAINT,1402 W 81ST ST,1402,W,81ST,ST,438626,,41.74689298,-87.65864137,"(41.74689297661828, -87.65864136669668)"
7221069,10/21/2024,08/15/2024,COMPLIED,10/18/2024,ARRANGE PREMISE INSPECTION,,UNABLE TO GAIN INTERIOR ACCESS FOR 2024 ANNUAL INSPECTION,BL00950,14440128,PASSED,N,PERIODIC,6318 N CLARK ST,6318,N,CLARK,ST,219484,,41.99687304,-87.67043243,"(41.99687303629295, -87.67043243166162)"
7185925,06/28/2024,06/28/2024,OPEN,,ARRANGE PREMISE INSPECTION,OTHER   :    :OTHER,INTERIOR OF BUILDING /NO RESPONSE. UNVERIFIED DETECTORS AND CONDITIONS.,282126,14398601,FAILED,N,COMPLAINT,2542 N OAK PARK AVE,2542,N,OAK PARK,AVE,110847,,41.92669285,-87.79548282,"(41.92669284766977, -87.79548281480817)"
7017441,07/14/2023,07/14/2023,OPEN,,ARRANGE PREMISE INSPECTION,OTHER   :    :OTHER,INTERIOR OF BUILDING /NO ENTRY - UNABLE TO VERIFY DETECTORS AND CONDITIONS.,455370,14127056,FAILED,N,COMPLAINT,4719 S KOLIN AVE,4719,S,KOLIN,AVE,325684,,41.80716402,-87.73198675,"(41.80716402330751, -87.73198674614586)"
7020179,08/08/2023,06/30/2009,COMPLIED,08/08/2023,ARRANGE PREMISE INSPECTION,OTHER   :    :OTHER,INTERIOR ENTRY REFUSED AND NO RESPONSE OTHER APARTMENTS UNABLE TO VERIFY COMPLAINT PORCH DUE TO FIRE AT 1415 UNABLE TO VERIFY DETECTORS AND REAR STAIRWAY,BL00904,10382305,FAILED,N,PERIODIC,135 S WALLER AVE,135,S,WALLER,AVE,14760,,41.8780639,-87.76789666,"(41.87806389474107, -87.76789666138411)"
7117670,02/07/2024,08/14/2023,OPEN,,ARRANGE PREMISE INSPECTION,,NO INTERIOR ACCESS TO PERFORM 2023 ANNUAL INSPECTION,287646,13636095,FAILED,N,PERIODIC,1401 S MICHIGAN AVE,1401,S,MICHIGAN,AVE,261239,,41.8640026,-87.62393205,"(41.8640025957384, -87.62393204930056)"
6941389,04/12/2023,04/12/2023,OPEN,,ARRANGE PREMISE INSPECTION,OTHER   :    :OTHER,INTERIOR OF BUILDING /MOST APARTMNETS - NO ENTRY. UNVERIFIED DETECTORS AND CONDITIONS PER CFD COMPLAINT AFTER FIRE ON SECOND FLOOR.,455370,14083455,FAILED,N,COMPLAINT,7949 S ST LAWRENCE AVE,7949,S,ST LAWRENCE,AVE,430071,51.0,41.74975009,-87.60989353,"(41.74975009414982, -87.609893530383)"
7173648,06/06/2024,05/22/2024,OPEN,,ARRANGE PREMISE INSPECTION,,"NO ENTRY, CALL FOR INTERIOR ACCESS",104976,14229093,FAILED,N,PERIODIC,5 W DIVISION ST,5,W,DIVISION,ST,4081,,41.90382818,-87.62890822,"(41.9038281774845, -87.62890821819511)"
7259022,12/09/2024,12/09/2024,OPEN,,ARRANGE PREMISE INSPECTION,OTHER   :    :OTHER,INTERIOR OF BUILDING - NO RESPONSE. UNVERIFIED DETECTORS AND CONDITIONS. UNABLE TO INSPECT INTERIOR STAIRWAY SYSTEMS. UNABLE TO CONFIRM INTERIOR COMPLAINT OF INSECT INFESTATION.,451988,14467317,FAILED,N,COMPLAINT,840 W ARGYLE ST,840,W,ARGYLE,ST,11416,,41.97346577,-87.65181084,"(41.973465765669154, -87.65181083814068)"
6776990,06/03/2023,04/06/2022,COMPLIED,06/01/2023,ARRANGE PREMISE INSPECTION,1049776,"UNABLE TO GAIN INTERIOR ACCESS FOR 2022 ANNUAL INSPECTION. UNABLE TO VERIFY DETECTORS, CONDITIONS OR OCCUPANCY. CALL 312-545-1376 TO SCHEDULE INTERIOR INSPECTION.",104976,13808640,FAILED,N,PERIODIC,750 S CLINTON ST,750,S,CLINTON,ST,15013,,41.87204627,-87.64102471,"(41.87204626658311, -87.64102470530548)"
4758756,12/23/2024,06/06/2014,OPEN,,ARRANGE PREMISE INSPECTION,OTHER   :    :BUILDING INTERIOR,ENTRY DECLINED AT 6758 S. APT.2; NO RESPONSE AT REMAINING APARTMENTS DOORBELLS- UNVERIFIED DETECTORS AND COMPLAINT OF: SR#131647356-BEDBUGS.,BL00941,14471693,FAILED,N,COMPLAINT,1408 W 68TH ST,1408,W,68TH,ST,397867,,41.77054619,-87.65951361,"(41.77054618556029, -87.65951361341266)"
